"","X","State","County","FIPS","Lat","Lon","Phase","Dmgrph1","Dmgrph2","Sccnmc1","Sccnmc2","Epdmlgc","Helthcr","Vaccntn","HsngCnd","Envrnmn","StartDate","EndDate","PseudoDate","Population","Incidence"
"1",1,"Alabama","Autauga",1001,32.5349,-86.6427,4347,0.48142504106917,-0.102594598393059,-0.590517139415688,-0.353304797941385,0.320121337841071,0.476113562524858,1.09583488594562,0.853649674433413,2.71249675002462,"2020-10-16","2021-03-03","1",55869,77.8070128335929
"2",2,"Alabama","Baldwin",1003,30.7275,-87.7226,13523,0.839321754551697,-0.198130868504663,-0.9257873207863,-0.649906755268612,-0.762887556031868,-0.360221094074221,0.392410262995165,-0.135379515833243,1.62411450655,"2020-10-16","2021-03-03","1",223234,60.5776897784388
"3",3,"Alabama","Barbour",1005,31.8696,-85.3932,1161,-1.31839811023883,1.1047831529723,2.00305749759037,2.77601841653947,4.09797601110015,0.817307492673509,1.1672329134117,1.05984240512408,1.6251036816294,"2020-10-16","2021-03-03","1",24686,47.0307056631289
"4",4,"Alabama","Bibb",1007,32.9986,-87.1265,1688,-1.88028283131387,-0.054872175093018,0.814511394493652,2.13123533465033,1.31953915830572,0.41306278651448,1.84980048033058,-0.717281929240883,2.03839974108871,"2020-10-16","2021-03-03","1",22394,75.3773332142538
"5",5,"Alabama","Blount",1009,33.9809,-86.5674,4446,0.138249695380316,-0.261306250529569,-0.636136878958786,0.879151176191676,-0.209041353422154,1.34993300127675,1.51154946971629,-1.27077837892066,1.3324875485054,"2020-10-16","2021-03-03","1",57826,76.8858299035036
"6",6,"Alabama","Bullock",1011,32.1005,-85.7157,541,-2.43473946961075,1.95825919216561,2.9865644759819,2.66996444167293,5.06615807944465,1.10939560010582,1.49427981640885,1.71351769224114,2.18205525417716,"2020-10-16","2021-03-03","1",10101,53.5590535590536
"7",7,"Alabama","Butler",1013,31.7524,-86.6803,1023,1.76225371203369,0.643127564919218,1.9066723947978,1.28193012175994,2.96382998946665,0.880048407504157,1.82331806003188,0.238789223624801,1.99238601664736,"2020-10-16","2021-03-03","1",19448,52.6018099547511
"8",8,"Alabama","Calhoun",1015,33.7714,-85.826,9752,0.742153324519642,0.167716614355977,0.457413259915838,0.343001554085044,0.861053038466458,-0.558987148305958,1.02211032409994,0.254714668574312,1.64203436465566,"2020-10-16","2021-03-03","1",113605,85.8412921966463
"9",9,"Alabama","Cherokee",1019,34.1759,-85.6038,1075,0.550011074811108,-0.686514682247152,0.187848861298768,1.66881475699649,1.20772007488344,0.987090353923465,0.948091512138896,-1.04026795107921,0.429965742254619,"2020-10-16","2021-03-03","1",26196,41.0367995113758
"10",10,"Alabama","Chilton",1021,32.8479,-86.7188,2124,0.278387114407618,-0.093297681263461,-0.60768891488021,1.16553304744588,0.853641078857333,1.0775916837024,1.4392526891501,0.547455978549669,1.85219985461417,"2020-10-16","2021-03-03","1",44428,47.8076888448726
"11",11,"Alabama","Choctaw",1023,32.0198,-88.2632,168,1.48928523596908,0.781069974464497,2.29280080932451,0.603538989627226,2.37837138698334,0.352519946383641,0.643642192153269,-0.110620636495654,1.50308591099275,"2020-10-16","2021-03-03","1",12589,13.3449837159425
"12",12,"Alabama","Clarke",1025,31.6767,-87.8308,2199,1.26271241799114,1.2366066898129,2.10365082652219,1.25337747128234,2.47560514707415,0.264034239704184,1.44961731801329,-0.567659401550089,1.57424157728758,"2020-10-16","2021-03-03","1",23622,93.0911861823724
"13",13,"Alabama","Clay",1027,33.269,-85.8606,776,0.595290448557059,-0.245102704516233,1.43427358654724,1.43326420543929,1.30908532491183,1.02211162133528,1.45007166901142,-1.16746615842487,1.00921889193444,"2020-10-16","2021-03-03","1",13235,58.6324140536456
"14",14,"Alabama","Coffee",1031,31.4027,-85.9882,3653,0.175834451207463,0.190314296716642,0.061928488492113,-0.174692190513005,1.90191651937913,0.441625925900146,1.68390824746815,-0.372560739220092,2.44129668902605,"2020-10-16","2021-03-03","1",52342,69.7909900271293
"15",15,"Alabama","Colbert",1033,34.7005,-87.8049,4135,0.994271630197874,-0.03842285552152,0.210163284807726,-0.169467814850566,0.583201251097623,-0.23494659348045,0.406692515960133,-0.439907545852914,1.32406057859526,"2020-10-16","2021-03-03","1",55241,74.853822342101
"16",16,"Alabama","Conecuh",1035,31.4292,-86.9937,520,1.24370798209723,1.00431503201148,0.949577848493555,1.06624013218454,2.99905077005711,0.879140109339934,1.23116046628104,-1.45225427199421,2.30693093057666,"2020-10-16","2021-03-03","1",12067,43.0927322449656
"17",17,"Alabama","Covington",1039,31.2485,-86.4513,2377,0.943070403788035,-0.388444203618554,0.983720326736308,0.780047639439863,2.15015948126189,0.333379594020863,1.56138710751131,0.009509380551467,2.8410333307377,"2020-10-16","2021-03-03","1",37049,64.1582768765689
"18",18,"Alabama","Crenshaw",1041,31.7315,-86.3135,884,0.573098667220776,-0.026608144394061,1.3746452106437,1.60687792113092,1.70150297525347,1.39739859899231,1.79800700508171,-0.386617025072468,1.43383385520941,"2020-10-16","2021-03-03","1",13772,64.188207958176
"19",19,"Alabama","Cullman",1043,34.1319,-86.8676,6789,0.178977352278891,-0.611957464374181,-1.00526485904748,0.566724012728717,0.601125914638087,0.0351169238969167,0.395380851541689,-0.587924854402585,1.2787555672193,"2020-10-16","2021-03-03","1",83768,81.0452678827237
"20",20,"Alabama","Dale",1045,31.4318,-85.611,3063,0.331420559725195,0.248428202384676,0.357510740614191,0.421857598722251,1.40290126963182,1.08972784249498,1.37677738999713,1.30094267611511,2.02566954724656,"2020-10-16","2021-03-03","1",49172,62.2915480354673
"21",21,"Alabama","Dallas",1047,32.326,-87.1065,1578,1.7335077234348,1.39026278155494,3.41574762461662,0.359641218086122,4.57528002156194,-0.189251587141255,0.983102503346873,1.86423735728644,0.718793217805113,"2020-10-16","2021-03-03","1",37196,42.4239165501667
"22",22,"Alabama","DeKalb",1049,34.4598,-85.8041,5450,0.010590563273928,0.01919631009999,0.50855924666885,1.9430283433988,2.03831107052524,0.71314447385466,1.31612107317125,-0.041139265406607,0.607369151035533,"2020-10-16","2021-03-03","1",71513,76.2099198747081
"23",23,"Alabama","Elmore",1051,32.5966,-86.1492,6406,0.448328803253767,-0.045700433090909,-1.08214143932472,0.223781626728227,0.107354378193598,1.31101595927456,1.14877133401607,-0.030619375416107,2.67382422791543,"2020-10-16","2021-03-03","1",81209,78.8828824391385
"24",24,"Alabama","Escambia",1053,31.1261,-87.1616,2092,-0.185755753570015,0.708063353282922,1.21088010484246,1.45925962470328,3.28341133905182,0.62053165738045,1.8315640336538,-0.001215111051313,1.95807067943714,"2020-10-16","2021-03-03","1",36633,57.1069800453143
"25",25,"Alabama","Etowah",1055,34.0453,-86.0348,9455,0.669699863247873,-0.056760605587137,0.460694566557654,0.0630545561858353,1.40846663313987,-0.629588483199626,1.17227660964301,-0.124779921478105,0.927172155944977,"2020-10-16","2021-03-03","1",102268,92.4531622795009
"26",26,"Alabama","Fayette",1057,33.7212,-87.7389,1481,0.686881235677571,-0.374604963740079,1.00129202697502,1.55470673921446,1.34775309205817,-0.763723660874829,0.889488185953028,-0.405103308621688,1.15788174560973,"2020-10-16","2021-03-03","1",16302,90.8477487424856
"27",27,"Alabama","Franklin",1059,34.4417,-87.8437,2045,-0.068615796843486,0.388808491413841,-0.239026636325421,2.34039670979136,1.34332543955442,0.598788205322466,1.08655661776357,0.068518564827941,1.13028531039547,"2020-10-16","2021-03-03","1",31362,65.206300618583
"28",28,"Alabama","Geneva",1061,31.0951,-85.8391,1588,0.631373949495713,-0.335843890238447,0.545477426877287,1.60369049112088,1.47387955284223,1.33349858322997,0.957586731219669,1.11356578141853,2.3878758887878,"2020-10-16","2021-03-03","1",26271,60.4468805907655
"29",29,"Alabama","Hale",1065,32.7627,-87.6291,1390,1.27013906876651,1.46443699616242,2.6012387064801,1.71204488823736,4.07702006830099,1.4311443892568,0.471144505609473,-0.327805069878591,1.73091334201126,"2020-10-16","2021-03-03","1",14651,94.8740700293495
"30",30,"Alabama","Henry",1067,31.5147,-85.2414,1209,1.18377231842178,0.123732642662017,0.531533342971987,1.36365576446221,1.6905662594669,0.94388451005045,1.05829178894578,-0.167568462693302,2.4679958476802,"2020-10-16","2021-03-03","1",17205,70.2702702702703
"31",31,"Alabama","Houston",1069,31.1532,-85.3025,6528,0.902953070882387,0.273134052789519,0.685290043660929,-0.0156621696639432,1.19834911166846,-1.14430889046661,0.855517245444768,0.841001369062291,2.14210311483875,"2020-10-16","2021-03-03","1",105882,61.6535388451295
"32",32,"Alabama","Jackson",1071,34.7795,-85.9994,4599,0.492142092155903,-0.634780680263,0.311284450955399,1.40980236457252,1.15829499193773,0.357982845991364,0.479634980101352,-0.553412704319202,1.30077747191298,"2020-10-16","2021-03-03","1",51626,89.0830201836284
"33",33,"Alabama","Jefferson",1073,33.5543,-86.8964,49370,1.01780245134062,0.779991986017975,0.711990055186549,-1.07281132020485,0.843326864354991,-2.17701751713797,-0.164100142796347,0.421728650482177,2.93640176309469,"2020-10-16","2021-03-03","1",658573,74.9651139661055
"34",34,"Alabama","Lamar",1075,33.7791,-88.097,896,0.558555164609276,-0.411135018524587,0.678548320369953,1.5753409586677,1.01719157559951,-0.0560019111716077,0.559093613799502,-1.64839012110239,1.66545932528791,"2020-10-16","2021-03-03","1",13805,64.9040202825063
"35",35,"Alabama","Lauderdale",1077,34.9014,-87.654,6616,0.959443704078632,-0.403612854094133,-0.07841529100674,-0.27082092199201,0.632840404774429,-0.0802938965025373,-0.0382248782864578,-0.570067941034009,1.3320542166923,"2020-10-16","2021-03-03","1",92729,71.3476905822343
"36",36,"Alabama","Lawrence",1079,34.5217,-87.311,2074,0.420578671808648,-0.413145293939224,-0.304372686288546,0.862728884041309,1.34610213030808,1.63763420741357,0.974708540580108,0.005650885703674,1.31156655883018,"2020-10-16","2021-03-03","1",32924,62.9935609281983
"37",37,"Alabama","Limestone",1083,34.8101,-86.9814,6775,-0.338510285812498,-0.035556059275012,-1.23858134907865,-0.0367920365602261,-0.206706432554129,0.76232860475965,0.801533879015323,-0.1309632366473,1.41917451992461,"2020-10-16","2021-03-03","1",98915,68.4931506849315
"38",38,"Alabama","Macon",1087,32.3859,-85.6927,949,2.26362242314819,1.93788904930792,2.88813913254249,0.979471082545303,4.22997195101244,0.795969382056876,1.19846352746175,0.640315810929958,2.14580002638521,"2020-10-16","2021-03-03","1",18068,52.523798981625
"39",39,"Alabama","Madison",1089,34.7631,-86.5502,23755,0.060344400151823,0.32731545323845,-0.672054644824761,-1.3378612767034,-0.251256340844851,-0.881600592054223,-0.171854013764322,-0.858811438753999,-0.020890698564593,"2020-10-16","2021-03-03","1",372909,63.7018682842195
"40",40,"Alabama","Marengo",1091,32.2477,-87.7895,1445,1.47416904802197,1.05833480101153,2.4146825444375,0.0725681906456392,3.01919322375035,0.589905360262248,0.721086758352427,-0.399533569776314,1.54296565716572,"2020-10-16","2021-03-03","1",18863,76.6049939034088
"41",41,"Alabama","Marion",1093,34.1366,-87.8871,1852,0.170703075872242,-0.636008257907867,0.14963390946895,1.00146780763229,1.08287443817785,1.05826264932853,1.42443224511224,-1.21382346827791,1.20518955398106,"2020-10-16","2021-03-03","1",29709,62.3380120502205
"42",42,"Alabama","Mobile",1097,30.7872,-88.2058,22092,0.976677781419525,1.60996469921146,0.925322420551166,0.0409307070197897,1.44861385730462,-0.356295780936973,0.651253681255294,1.02201785897722,2.64462063880923,"2020-10-16","2021-03-03","1",413210,53.4643401660173
"43",43,"Alabama","Monroe",1099,31.5709,-87.3655,1047,1.21301429969159,1.55823003688833,2.3553207126307,1.71549561346983,2.93726325573113,0.698677773537627,1.11354218202664,-0.005013686462684,2.3050641552662,"2020-10-16","2021-03-03","1",20733,50.4992041672696
"44",44,"Alabama","Montgomery",1101,32.2203,-86.2076,13191,1.09516663233255,1.2132297823332,1.80703782843777,-0.524905460551929,3.44019917925747,-1.68930926419409,0.877825315774313,1.43803441699962,2.23105769047721,"2020-10-16","2021-03-03","1",226486,58.2420105436981
"45",45,"Alabama","Morgan",1103,34.4535,-86.8529,9896,0.267874581348455,0.086765714965929,-0.654774025627437,0.470413545862183,1.03947193785625,-0.025601123750409,0.294327063694297,-0.314378073817605,0.768550401638715,"2020-10-16","2021-03-03","1",119679,82.6878566832945
"46",46,"Alabama","Perry",1105,32.6385,-87.2944,483,1.75787792760931,1.73107881128165,3.37639729084297,2.33274953052195,6.0972000958702,0.946544038828959,1.55359450518893,0.389204640843538,1.7156179156458,"2020-10-16","2021-03-03","1",8923,54.129776980836
"47",47,"Alabama","Pickens",1107,33.2808,-88.0888,1475,0.0209211786851,1.12388440170436,0.914530435725758,1.50980803106839,2.86514166917852,0.845668248795461,0.33366106716335,-1.0627947063047,2.07461796477659,"2020-10-16","2021-03-03","1",19930,74.0090316106372
"48",48,"Alabama","Pike",1109,31.8027,-85.9409,1641,0.770437076831268,0.463178485629796,1.80724140525384,0.16243238470438,1.39944763095661,0.501495103025771,1.52592243707067,0.048471412380525,1.55244498469363,"2020-10-16","2021-03-03","1",33114,49.5560789998188
"49",49,"Alabama","Randolph",1111,33.2938,-85.4591,872,0.869744618578371,-0.013728804575848,0.98741258796755,1.6503206468398,1.85620531054108,1.38663418404217,1.83955023339532,-0.095907741861881,0.345984776360161,"2020-10-16","2021-03-03","1",22722,38.3769034415985
"50",50,"Alabama","Russell",1113,32.2884,-85.1849,2175,0.789293612450299,1.15457204549451,0.889257373768545,0.256653579178345,2.33075069672686,1.06591971060519,1.34464537189188,2.3145913429612,2.0001350897686,"2020-10-16","2021-03-03","1",57961,37.5252324839116
"51",51,"Alabama","St. Clair",1115,33.7157,-86.3146,6298,0.084436122847202,-0.427191656609728,-1.18989818864148,0.579188277438614,0.268756785504381,1.23219388801176,0.871774548079636,-0.815668912825465,1.80822904631846,"2020-10-16","2021-03-03","1",89512,70.3592814371257
"52",52,"Alabama","Shelby",1117,33.2643,-86.6607,15206,0.512586094078613,-0.10180367485069,-2.04570166552751,-1.61004484816948,-1.23449913987506,-0.686462122243341,1.00268161389168,-0.956972846563001,2.29162483934596,"2020-10-16","2021-03-03","1",217702,69.8477735620252
"53",53,"Alabama","Sumter",1119,32.5911,-88.1988,531,1.89077909179188,2.1330932123839,3.37751929031314,0.178655269022308,4.82237506324343,0.605707161860659,1.1187205863679,-0.252287336395258,1.7288024889245,"2020-10-16","2021-03-03","1",12427,42.729540516617
"54",54,"Alabama","Talladega",1121,33.3801,-86.1659,5087,0.732883712891483,0.355469675916553,0.998363787376704,0.826087613088306,2.12459885907475,0.753506919203817,1.26868789485227,0.351087333410581,1.80941244769059,"2020-10-16","2021-03-03","1",79978,63.6049913726275
"55",55,"Alabama","Tallapoosa",1123,32.8624,-85.7975,2364,0.939818327943097,0.169636519384385,1.11390987051291,1.00146848348013,1.47616196260958,0.487510053629251,0.393814600168513,0.752867645994485,1.98087545254315,"2020-10-16","2021-03-03","1",40367,58.5626873436223
"56",56,"Alabama","Tuscaloosa",1125,33.2896,-87.5251,14542,0.519717173186756,0.64831227097561,-0.002192078199533,-0.415668406928181,1.43640428901524,-0.361795126962342,0.713293160048111,0.588867635115252,1.42643796530389,"2020-10-16","2021-03-03","1",209355,69.4609634353132
"57",57,"Alabama","Walker",1127,33.8033,-87.2973,3956,0.57446462379329,-0.551788375545981,0.826463929696922,0.651129413301317,0.666271857294323,0.306709566526441,0.889256540051358,-0.093929416383218,1.29205877183492,"2020-10-16","2021-03-03","1",63521,62.2786165205208
"58",58,"Alabama","Washington",1129,31.4076,-88.2078,952,0.606826544869682,0.68108361082228,3.53295729203938,0.430712489025079,2.31979022309403,1.6310766198585,2.07264627549167,-0.865558298449821,1.49967067120131,"2020-10-16","2021-03-03","1",16326,58.3118951365919
"59",59,"Alabama","Wilcox",1131,31.9893,-87.3082,671,1.53775642637612,1.88907706906354,5.21893449558851,2.17351910523135,5.29481406197749,1.32532868828411,1.29070048966848,-0.098104674803224,1.52676963533272,"2020-10-16","2021-03-03","1",10373,64.6871686108165
"60",60,"Alabama","Winston",1133,34.1492,-87.3737,1716,0.58582797163947,-0.712341117033185,0.080160750739956,1.72443831908006,1.29224024412021,0.876860095546904,1.96786858922312,-0.750232454977764,1.27181626067581,"2020-10-16","2021-03-03","1",23629,72.6226247407846
"61",61,"Arizona","Apache",4001,35.3955,-109.4888,6752,0.027209152070625,-0.260673602487808,4.9662041212925,1.29269982025371,1.8886466956378,-0.288487339569684,-1.66812209649368,2.56758083739017,-1.83402056875001,"2020-10-16","2021-03-03","1",71887,93.9251881425014
"62",62,"Arizona","Cochise",4003,31.8796,-109.7512,9237,-0.152501216220627,1.9180553236856,0.528429070512619,-0.222260565197213,-1.06697849006355,-0.249985206546636,0.489302982564496,0.384275867815826,0.080279741136473,"2020-10-16","2021-03-03","1",125922,73.3549340067661
"63",63,"Arizona","Coconino",4005,35.8387,-111.7705,11992,0.00383899579419,0.32970938784215,0.884251685100943,-1.01520534548017,-1.70918742624395,-1.28436315727264,-1.0660034509199,1.52615232065378,-1.83247964095964,"2020-10-16","2021-03-03","1",143476,83.5819231090914
"64",64,"Arizona","Gila",4007,33.7997,-110.8117,4716,0.84120472417637,0.642101582852554,0.814895301951445,0.505891194428018,-0.685985506933633,0.0952057197049463,-0.199289399573646,1.6597600381236,0.182763696917663,"2020-10-16","2021-03-03","1",54018,87.3042319226924
"65",65,"Arizona","Graham",4009,32.9326,-109.8875,4290,-1.95954205176893,1.73715371349518,-0.149121457232477,1.39841454799678,-0.329406716767976,-0.128962220667207,0.623527496417289,1.05064927889905,2.71983702096182,"2020-10-16","2021-03-03","1",38837,110.461673146742
"66",66,"Arizona","Greenlee",4011,33.2152,-109.2402,492,-1.21622790633585,2.88026947968174,-1.82844498426287,0.190291148672045,-0.707449976656678,0.570649687263977,1.19909309924938,-0.931172270652462,2.78794053533928,"2020-10-16","2021-03-03","1",9498,51.8003790271636
"67",67,"Arizona","La Paz",4012,33.7294,-113.9816,1825,0.994685164473986,1.35171797329837,1.10363555513311,1.60536512793326,0.696821779399445,0.30919324437121,1.7291127805989,1.1798037729503,4.15230026170829,"2020-10-16","2021-03-03","1",21108,86.4601099109342
"68",68,"Arizona","Maricopa",4013,33.349,-112.4915,363674,-0.040423263085047,1.64073172959053,-0.648126799649916,-0.346659110379435,-1.26043023585302,-0.835930404472508,-0.551293780159846,1.31486763658014,4.24676211225374,"2020-10-16","2021-03-03","1",4485414,81.0792493179002
"69",69,"Arizona","Mohave",4015,35.7041,-113.758,17110,0.587947995123427,0.536501143554633,0.843875639962443,0.702659215383757,-0.06744191523377,0.0866327400220648,0.912346213564664,1.73462460957092,2.22429701417774,"2020-10-16","2021-03-03","1",212181,80.6386999778491
"70",70,"Arizona","Navajo",4017,35.3997,-110.3214,9594,-0.082762793819405,0.116703883924126,2.13380392004954,0.911963533757365,0.509184880193105,-0.547378170014214,-0.672109054014298,1.77426651868298,0.354617841613818,"2020-10-16","2021-03-03","1",110924,86.4916519418701
"71",71,"Arizona","Pima",4019,32.0974,-111.7899,83172,0.423941344090076,2.10448466562829,0.236196460109958,-0.375844068383961,-1.70545750644182,-1.08236138476532,-1.15847514508281,1.30689879428344,2.58818341704707,"2020-10-16","2021-03-03","1",1047279,79.4172326572002
"72",72,"Arizona","Pinal",4021,32.9044,-111.3448,35286,-0.671759846086198,1.58624134043234,-0.872498001440909,0.44526165518564,0.014723787338212,1.17635952650467,0.0553170008540906,1.18994708034612,4.62352473115704,"2020-10-16","2021-03-03","1",462789,76.2464103511536
"73",73,"Arizona","Santa Cruz",4023,31.5259,-110.8465,4701,0.73651709179518,5.3894685713166,2.15138939382659,1.77673999692621,0.700465318733541,0.69961737766881,-0.927310786113512,1.32893920879925,2.68299776360758,"2020-10-16","2021-03-03","1",46498,101.10112262893
"74",74,"Arizona","Yavapai",4025,34.5999,-112.554,14331,1.55690495731325,0.356029222319866,-0.511373700175625,-0.498414021704821,-2.26751087956539,-0.465238127131784,0.131039993231269,1.55426600356077,0.150136426132789,"2020-10-16","2021-03-03","1",235099,60.9572988400631
"75",75,"Arizona","Yuma",4027,32.7695,-113.9056,23346,-0.683257684591292,4.12969501532702,3.54539965928459,2.26884329728058,1.78415213542755,0.545705090387477,-0.263498540905366,1.29145515954432,4.63881927705861,"2020-10-16","2021-03-03","1",213787,109.202149803309
"76",76,"Arkansas","Arkansas",5001,34.2908,-91.3749,1403,0.856455562438745,0.866668872078178,0.719445651466122,0.256142262963434,1.079848805041,-0.037482635445814,-0.00810760976658509,-0.367918920239054,1.54219283916967,"2020-10-16","2021-03-03","1",17486,80.2356170650806
"77",77,"Arkansas","Baxter",5005,36.2872,-92.337,2383,1.42699974106799,-0.755921686540371,-0.771672560047127,0.0388515098648679,-0.517095615380129,-0.571154666615543,-0.0515122662779608,-0.078250484525905,1.11283322928291,"2020-10-16","2021-03-03","1",41932,56.8301058857197
"78",78,"Arkansas","Benton",5007,36.3387,-94.2561,19829,-0.338034763311883,-0.157637991587846,-1.66226518035042,-0.110545663826647,-1.52314174284448,-0.0302007520166914,-0.471813020667646,-1.04660192952709,0.778359149048921,"2020-10-16","2021-03-03","1",279141,71.0357847826009
"79",79,"Arkansas","Boone",5009,36.3086,-93.0915,2718,0.430427489925632,-0.744635994258583,-0.780440486829826,-0.205852116905539,0.105834148751303,-0.653798925782215,0.556896967491738,-0.43629967468269,0.643050419988911,"2020-10-16","2021-03-03","1",37432,72.6116691600769
"80",80,"Arkansas","Carroll",5015,36.341,-93.5382,1797,0.366154830969381,-0.421742172130431,0.021647265934714,0.819182971257636,0.097220948582497,0.422022219039073,0.322817317604466,0.64841860593432,0.511663762662914,"2020-10-16","2021-03-03","1",28380,63.3192389006342
"81",81,"Arkansas","Clark",5019,34.051,-93.1764,1591,0.914855477452858,0.752367752265366,0.516013379477991,-0.533803826581854,1.21871848783525,0.134993043577721,0.0564299110635886,0.528430303674912,1.56438957806018,"2020-10-16","2021-03-03","1",22320,71.2813620071685
"82",82,"Arkansas","Clay",5021,36.3683,-90.4175,1284,0.368283097428646,-0.732124843420594,0.262553395184621,0.650780739783773,1.13222532108178,1.17555036539108,0.842933722206307,0.466411304084796,0.76530907874157,"2020-10-16","2021-03-03","1",14551,88.2413579822693
"83",83,"Arkansas","Cleburne",5023,35.5381,-92.0267,1478,0.734156794394986,-0.743182189499223,0.12763240347059,0.601772069850789,0.23131376094756,0.0359348324116695,0.538476939125674,-0.593237560513417,0.960489395548104,"2020-10-16","2021-03-03","1",24919,59.3121714354509
"84",84,"Arkansas","Columbia",5027,33.2143,-93.2273,1631,0.762409267554787,1.42502955856889,2.33331734791607,-0.172194525999486,1.96535273514847,-0.0233683729534118,0.76964677447532,0.67980133897688,2.14386968620622,"2020-10-16","2021-03-03","1",23457,69.5314831393614
"85",85,"Arkansas","Conway",5029,35.2622,-92.7013,1829,0.468606932243177,-0.013379410745049,0.562179549570319,0.0872487351689113,1.357509075671,-0.0820141147019378,0.422304697279897,-0.541279601035027,1.68013894371735,"2020-10-16","2021-03-03","1",20846,87.7386548978221
"86",86,"Arkansas","Craighead",5031,35.8308,-90.6328,8942,0.400214240952031,0.428343481028605,0.182082707139579,-0.200633837260454,0.699775068115101,-1.90333790659405,-0.198056933832489,0.394534467843686,1.41707584282038,"2020-10-16","2021-03-03","1",110332,81.0462966319835
"87",87,"Arkansas","Crawford",5033,35.5885,-94.2429,4968,0.265857409899648,-0.512223289203567,-0.517694222027138,0.903800223104911,0.455935272288194,0.925053787537719,0.256537769704472,-0.171076491179669,1.92263765814104,"2020-10-16","2021-03-03","1",63257,78.5367627298165
"88",88,"Arkansas","Crittenden",5035,35.2079,-90.3089,3620,0.870574932937988,2.85131612035449,1.6064693165511,0.730163333373538,3.27181779053971,0.204091214262624,0.95728825129203,1.55905829540617,1.92899401626158,"2020-10-16","2021-03-03","1",47955,75.4874361380461
"89",89,"Arkansas","Cross",5037,35.2957,-90.7712,1368,0.727494113955199,0.74609195921639,0.585933084026424,0.948490745087258,1.78804941509605,0.29707730714712,0.440926600021749,-0.561595671985587,1.35820473283237,"2020-10-16","2021-03-03","1",16419,83.3181070710762
"90",90,"Arkansas","Dallas",5039,33.9698,-92.6544,565,0.701494817662168,1.80395097863219,2.10102351359776,-0.658880216558843,1.86388326023546,1.21527010264547,0.70230059518864,-1.11788525748943,1.40112254054035,"2020-10-16","2021-03-03","1",7009,80.6106434584106
"91",91,"Arkansas","Faulkner",5045,35.147,-92.332,8740,0.336930462751682,0.051506211871064,-0.786427428268231,-0.926793600368527,-0.049127495982374,0.0865129180108575,-0.253376228988812,0.648304573469505,2.10018083456076,"2020-10-16","2021-03-03","1",126007,69.3612259636369
"92",92,"Arkansas","Franklin",5047,35.5123,-93.8906,1187,0.151387831399014,-0.727670256676297,0.452229450096174,0.440719749788238,0.590789816038175,1.1932771164738,0.157098962072727,0.880256111381353,1.77640665380279,"2020-10-16","2021-03-03","1",17715,67.0053626869884
"93",93,"Arkansas","Fulton",5049,36.3817,-91.8182,817,0.882851683603694,-0.717453365386316,0.674965112532242,0.552844185821706,1.3105054783964,0.573301575524543,0.826904952887933,0.346318154830871,1.00457575489863,"2020-10-16","2021-03-03","1",12477,65.4804840907269
"94",94,"Arkansas","Garland",5051,34.5767,-93.1504,7527,1.07359249710404,-0.143044912640475,0.163613974324668,-0.416730084736892,-0.463169627206817,-0.982272047382869,-0.374035601319183,0.604343528161344,2.06381065690094,"2020-10-16","2021-03-03","1",99386,75.7350129796953
"95",95,"Arkansas","Grant",5053,34.29,-92.4236,1256,0.293953314637787,-0.59802131471388,-0.428024008466479,-0.103040762093794,-0.243235963812772,1.14290343996899,-0.0649724401293401,-0.072812690118619,1.8290925464057,"2020-10-16","2021-03-03","1",18265,68.7653983027649
"96",96,"Arkansas","Greene",5055,36.1176,-90.559,4691,0.211685046367896,-0.638758023522261,-0.690409236840954,0.319034081414252,1.03971097761946,0.300525106940508,0.117565170528968,0.042714703229329,1.3313037307742,"2020-10-16","2021-03-03","1",45325,103.496966354109
"97",97,"Arkansas","Hempstead",5057,33.7353,-93.6685,1437,0.665003312053823,1.41784363079102,0.499859555570825,0.690225651328527,2.25005661977038,0.934455680906732,1.77457027300775,0.357784909187648,1.80374829242389,"2020-10-16","2021-03-03","1",21532,66.7378785064091
"98",98,"Arkansas","Hot Spring",5059,34.3176,-92.946,2767,-0.969870077761645,-0.074933221106653,0.212680871337815,0.295237631427929,0.429737674340537,1.09618215484331,-0.192516911017011,-0.791306668020115,2.38843044510163,"2020-10-16","2021-03-03","1",33771,81.9342039027568
"99",99,"Arkansas","Howard",5061,34.0888,-93.9935,1061,0.60493152456199,0.848120422857672,-0.321153867711873,0.315366578346932,1.9156393576336,0.517902430081383,0.252474315618712,-0.720299539493821,1.84922955039572,"2020-10-16","2021-03-03","1",13202,80.3666111195273
"100",100,"Arkansas","Independence",5063,35.7415,-91.5697,2324,0.331213748446026,-0.510862602591439,-0.323170994940558,0.112256320255357,0.358153276915571,-0.4407757860624,-0.267138122517636,-0.141494147877199,1.70725483654139,"2020-10-16","2021-03-03","1",37825,61.4408460013219
"101",101,"Arkansas","Izard",5065,36.0949,-91.9134,1259,-0.749801593796766,-0.603527292210361,1.03729743696757,0.748922395989013,0.979712115015785,1.07500266212516,0.607556860432976,-0.336452604546481,0.823819774232187,"2020-10-16","2021-03-03","1",13629,92.3765500036687
"102",102,"Arkansas","Jackson",5067,35.5992,-91.2145,2585,-0.036160132518082,0.383419371862723,0.865416929516945,1.33841898545712,1.60360333145144,0.630912837934448,-0.126651553160303,-0.191955875998807,1.27746157998883,"2020-10-16","2021-03-03","1",16719,154.614510437227
"103",103,"Arkansas","Jefferson",5069,34.2688,-91.9315,4724,0.224401413450398,2.9392249763611,1.79535023471912,0.393910311825673,3.03422673983815,-0.0740965967044431,0.875819467360869,0.901729722576808,1.88446794588354,"2020-10-16","2021-03-03","1",66824,70.693164132647
"104",104,"Arkansas","Johnson",5071,35.5701,-93.4599,1839,-0.03145361043254,-0.327777578607693,-0.060389316747084,2.08083898120706,1.62103007946242,0.462876736221745,0.149445217017454,0.233132078101768,1.25788153576961,"2020-10-16","2021-03-03","1",26578,69.1925652795545
"105",105,"Arkansas","Lawrence",5075,36.0412,-91.1071,1350,0.277872942845681,-0.707797008432526,0.442225710191058,0.617813460832452,0.851511276673656,0.877241728214839,1.46998741505157,-0.903320795977559,1.33204361574429,"2020-10-16","2021-03-03","1",16406,82.2869681823723
"106",106,"Arkansas","Lee",5077,34.7806,-90.7821,546,-3.04268537589828,2.72502264332248,4.44381228234954,1.71399687418915,4.03551765958389,1.01485420082584,1.06665884983299,2.35089128995682,0.690154332634067,"2020-10-16","2021-03-03","1",8857,61.6461555831546
"107",107,"Arkansas","Little River",5081,33.7005,-94.2343,774,0.990089265159693,0.45366557385317,0.17088536102283,-0.139056414176413,0.62763629271901,0.800141855998847,0.8953872500995,-1.73525351452957,2.00651870167038,"2020-10-16","2021-03-03","1",12259,63.1372868912636
"108",108,"Arkansas","Logan",5083,35.2153,-93.7162,1644,0.352218837447682,-0.705004344478066,-0.435467470532691,0.296400340128646,1.327539475988,0.834996292831288,1.15132166834271,-0.787842640688165,1.35253831444868,"2020-10-16","2021-03-03","1",21466,76.5862293860058
"109",109,"Arkansas","Lonoke",5085,34.7542,-91.8888,5344,0.128996229226869,-0.315660030227542,-1.00663189582035,0.0146162482926169,0.10373095790655,1.18022561072064,0.221878359294635,-0.20316489513862,2.02737147109492,"2020-10-16","2021-03-03","1",73309,72.8969157947865
"110",110,"Arkansas","Madison",5087,36.011,-93.7245,999,-0.017189101917269,-0.654758942313722,-0.32478735685888,2.13446644816245,0.420513458955884,0.932069571560325,0.739445628177058,-0.026750382335999,0.211648546007999,"2020-10-16","2021-03-03","1",16576,60.2678571428571
"111",111,"Arkansas","Marion",5089,36.2684,-92.6842,849,0.954276161355871,-0.750212826512691,0.555229072413719,0.72904011273866,0.57056543923464,1.53003201375924,0.904325259734568,-0.111603949035495,1.03346322371846,"2020-10-16","2021-03-03","1",16694,50.8565951838984
"112",112,"Arkansas","Miller",5091,33.3121,-93.8916,2913,0.298904334860984,0.845840753697115,1.34945043456198,0.335005928229382,1.46317804251591,-0.0784913103465037,1.78454596810889,0.531696061248235,1.84945258202489,"2020-10-16","2021-03-03","1",43257,67.3417019210764
"113",113,"Arkansas","Mississippi",5093,35.7638,-90.0542,3688,0.289619809236425,1.62944279823802,2.16698107820455,1.42403082276357,2.43799510220409,0.332966783292296,0.650935745293939,0.069492113778894,1.28406333432191,"2020-10-16","2021-03-03","1",40651,90.7234754372586
"114",114,"Arkansas","Monroe",5095,34.6778,-91.2039,634,1.53614425770412,1.85300012868903,2.683450274947,2.02379940188604,2.76027146400463,-0.267345361222532,1.43121379446286,-0.359035944780306,1.76471612449944,"2020-10-16","2021-03-03","1",6701,94.6127443665125
"115",115,"Arkansas","Montgomery",5097,34.5388,-93.6596,553,0.602979234828875,-0.718273244721171,1.14419983238381,1.44712846138601,0.66926706016137,1.21057198281831,1.45225310373392,-0.075718045824133,1.55187691146897,"2020-10-16","2021-03-03","1",8986,61.540173603383
"116",116,"Arkansas","Ouachita",5103,33.5934,-92.8819,1895,1.13908891382694,1.74841897725721,0.528020716171158,-0.478397352453839,2.3441817017495,0.13579770294599,-0.180562479115952,0.054665183991244,1.50346238516472,"2020-10-16","2021-03-03","1",23382,81.0452484817381
"117",117,"Arkansas","Phillips",5107,34.4283,-90.848,1035,1.45604467155928,3.21129316448328,4.26729516967726,0.815894393900856,4.37436576943345,0.31900400798536,1.08507613837748,1.76884132563368,1.21250577846836,"2020-10-16","2021-03-03","1",17782,58.2049263299966
"118",118,"Arkansas","Pike",5109,34.1635,-93.6563,722,0.143391843082838,-0.448074189204906,0.353977048403706,-0.0852280146614834,0.386058856798833,0.941189688603599,1.18464023242709,-1.32608124101154,1.60654311074161,"2020-10-16","2021-03-03","1",10718,67.3633140511289
"119",119,"Arkansas","Poinsett",5111,35.574,-90.663,2198,0.507064400243562,-0.209455082603947,0.852156960096411,1.53009429099173,1.91349154297995,1.42063447503951,0.413763704104888,0.550492046341819,1.36542826181739,"2020-10-16","2021-03-03","1",23528,93.4206052363142
"120",120,"Arkansas","Polk",5113,34.4859,-94.2281,1569,0.686393686027388,-0.643028900545565,0.577752487623944,0.0328476013957211,0.558844804796948,-0.441883183639813,2.05427083127325,1.50192222449953,1.29843743814649,"2020-10-16","2021-03-03","1",19964,78.5914646363454
"121",121,"Arkansas","Pope",5115,35.4476,-93.0342,5247,0.078257278276042,-0.375092271667076,0.051528788846043,0.526768992134614,1.34204643623834,-0.132308222481575,0.106250616806146,-0.045490295192533,1.63503912520592,"2020-10-16","2021-03-03","1",64072,81.8922462229991
"122",122,"Arkansas","Prairie",5117,34.8298,-91.5528,684,0.101740239309631,-0.119222038194179,-0.373181176485337,-0.3374005045862,0.232476756182753,1.64829695238266,1.4020347160894,-1.36463560374372,1.83908911085775,"2020-10-16","2021-03-03","1",8062,84.8424708509055
"123",123,"Arkansas","Pulaski",5119,34.77,-92.3119,26542,0.979764370779877,1.78412332666532,0.784020098773037,-1.1093173871632,0.299414694065502,-2.04784745487333,-0.884204970787356,1.16856225495455,2.20388483590396,"2020-10-16","2021-03-03","1",391911,67.7245599128373
"124",124,"Arkansas","Randolph",5121,36.3415,-91.0277,1440,0.18633182441755,-0.679902999859818,0.544011552137121,0.692787722598243,0.661280075934453,0.270587621344781,0.657733604591635,-0.02372141433579,1.19176551350601,"2020-10-16","2021-03-03","1",17958,80.1871032408954
"125",125,"Arkansas","St. Francis",5123,35.022,-90.7478,1805,-2.77475174951957,2.73374576690159,2.79601390899113,1.53777644081783,4.21191382956906,0.323200775524148,0.570303871077033,1.52031309585918,2.02422742227829,"2020-10-16","2021-03-03","1",24994,72.2173321597183
"126",126,"Arkansas","Saline",5125,34.6466,-92.6765,8915,0.522333491692317,-0.126981823942845,-1.64604739553666,-0.767921933421435,0.280014340043629,0.538392042421426,-0.321331868766925,-0.918158773433191,2.15518681716776,"2020-10-16","2021-03-03","1",122437,72.8129568676136
"127",127,"Arkansas","Scott",5127,34.8608,-94.0633,781,-0.155503975817418,-0.579578126835529,-0.177992041337405,1.65801156709571,0.858902192624494,1.52859188927197,1.09751010890531,0.315604138379962,1.30898031193517,"2020-10-16","2021-03-03","1",10281,75.9653730181889
"128",128,"Arkansas","Searcy",5129,35.9109,-92.6996,489,0.096655316183951,-0.755518817659129,1.24126517532312,2.27639517863147,1.6045310502944,0.84968335918194,1.81137002522805,-1.7068472070985,0.992483026702803,"2020-10-16","2021-03-03","1",7881,62.0479634564142
"129",129,"Arkansas","Sebastian",5131,35.1993,-94.2742,10180,0.305238219972373,0.038614613077976,-0.112988966787752,0.411201203427074,0.351034095153831,-2.19205870856693,0.0402015109889171,0.135637713724288,2.00271671032084,"2020-10-16","2021-03-03","1",127827,79.6388869331205
"130",130,"Arkansas","Sevier",5133,33.9972,-94.2412,1466,-0.292454525415625,0.501213529449519,1.17080413859289,3.36944692027348,2.0508734120966,0.611019057315723,0.741972189808787,0.075714550310003,1.82446454921978,"2020-10-16","2021-03-03","1",17007,86.199800082319
"131",131,"Arkansas","Sharp",5135,36.1612,-91.4799,1232,0.769958720680034,-0.688001650874312,0.253566499215298,0.800034261634607,1.41324790509872,1.09055410687079,0.678665346935041,0.898393038005581,0.836762620850597,"2020-10-16","2021-03-03","1",17442,70.6341015938539
"132",132,"Arkansas","Stone",5137,35.8599,-92.1567,578,0.784906782707498,-0.769084001063823,1.6006742754685,0.437828267476949,1.29113588606963,0.615306629753075,-0.282755473667173,-0.003200538653363,0.800905709353374,"2020-10-16","2021-03-03","1",12506,46.2178154485847
"133",133,"Arkansas","Union",5139,33.1713,-92.5972,2687,0.60510265386349,1.3745018541149,1.41829783022976,-0.197249163782112,1.83551771651378,-0.0251085158024722,0.573537025139536,1.01907358205807,1.95511456503611,"2020-10-16","2021-03-03","1",38682,69.4638333074815
"134",134,"Arkansas","Van Buren",5141,35.5806,-92.5157,1005,0.494240570362639,-0.718317273064395,0.445207429085456,1.41039029348261,0.983850516305801,0.502878955421011,0.308937496997002,-0.062212396750705,1.2405973412891,"2020-10-16","2021-03-03","1",16545,60.7434270172257
"135",135,"Arkansas","Washington",5143,35.9791,-94.2156,18707,-0.455356350443553,-0.093199418648426,-0.955623735125336,0.264231804039732,0.24829567532402,-0.819305664590985,-0.386419203945587,0.175100736928698,0.470847784856008,"2020-10-16","2021-03-03","1",239187,78.2107723245829
"136",136,"Arkansas","White",5145,35.2563,-91.7455,6350,0.473396622297274,-0.438610807590041,-0.166388680329455,0.699024351689578,0.730343307276954,0.308994911275937,0.338778929182748,-0.14169759766113,1.76122617248264,"2020-10-16","2021-03-03","1",78753,80.631848945437
"137",137,"Arkansas","Woodruff",5147,35.1863,-91.2431,542,0.896188842694404,0.857102304271712,1.89680806280976,1.20347604451187,1.9749084749372,0.171009184948357,1.67444194230991,-0.733883088736234,1.55064869106322,"2020-10-16","2021-03-03","1",6320,85.7594936708861
"138",138,"Arkansas","Yell",5149,35.0026,-93.4112,2064,-0.181638454211181,-0.101952597242143,-0.506605062914402,2.31881579984313,1.30350348723945,0.426738171382764,0.920298471032511,0.633929036682276,1.44168857917645,"2020-10-16","2021-03-03","1",21341,96.7152429595614
"139",139,"California","Alameda",6001,37.6469,-121.8889,58401,-0.043832157087956,0.953667221246312,0.252565791852928,-0.813211909780817,-2.91509799896366,-2.29183244607034,-2.46310561553639,3.19399471761257,2.74370022012118,"2020-10-16","2021-03-03","1",1671329,34.9428508689791
"140",140,"California","Amador",6005,38.4464,-120.6511,3177,-1.54062740129148,0.383367777804438,0.240846695896399,-0.012773035228526,-1.72236804494313,-0.48446339247638,-0.737188906693894,2.03515984490957,0.950652757648484,"2020-10-16","2021-03-03","1",39752,79.9205071442946
"141",141,"California","Butte",6007,39.6669,-121.6007,8242,0.146469178957063,0.590406356845577,1.24070221375732,-0.611738264582557,-1.35562615295285,-0.778319053078079,-0.58655430399266,3.22579067171128,2.52009240164687,"2020-10-16","2021-03-03","1",219186,37.6027666000566
"142",142,"California","Calaveras",6009,38.2046,-120.5541,1599,0.604077644389505,0.261651527459779,0.247218948239276,-0.153643868070822,-1.63036728737525,0.273774099100391,-0.322732020224394,2.795234204477,1.68288573878862,"2020-10-16","2021-03-03","1",45905,34.8328068837817
"143",143,"California","Colusa",6011,39.1775,-122.237,1331,-0.639587385079241,3.80689401593609,2.80314252684464,2.81817239490419,-0.079891642492071,0.720356493198787,-0.240104402291966,1.72672270513455,2.21234054954245,"2020-10-16","2021-03-03","1",21547,61.7719404093377
"144",144,"California","Contra Costa",6013,37.9191,-121.9278,45145,0.267865197339325,1.27506889125718,-0.040579379967236,-0.610064335903478,-2.1821251566182,-1.95091626294643,-2.60654876306517,2.65292392528159,2.64749615683907,"2020-10-16","2021-03-03","1",1153526,39.1365257480109
"145",145,"California","Del Norte",6015,41.7431,-123.8972,834,-2.15333925138791,0.803474743203793,1.69657316586851,2.08032667377554,-0.367877872350738,-0.814502460775239,0.332562155222983,1.94927657090825,-1.74796619368368,"2020-10-16","2021-03-03","1",27812,29.9870559470732
"146",146,"California","El Dorado",6017,38.7787,-120.5247,7833,0.271712938310341,0.241485204419053,-0.041948602974383,-1.32109188388011,-2.36125241278416,-1.15453978401608,-1.40342011557431,2.00681413379186,1.07595039281149,"2020-10-16","2021-03-03","1",192843,40.6185342480671
"147",147,"California","Fresno",6019,36.7582,-119.6493,63819,-0.439795607264858,3.33450824069855,2.44254731611663,1.73999235768472,0.386008542930199,-0.583789519935303,-0.536251409579003,4.16238271047133,3.77586038833995,"2020-10-16","2021-03-03","1",999101,63.8764249059905
"148",148,"California","Glenn",6021,39.5982,-122.392,1607,-0.677672346797835,2.50331832678903,0.85259083173064,2.48754239898325,-0.082169335809542,0.203053623940608,0.311965965600308,3.4241874673976,2.26496592901094,"2020-10-16","2021-03-03","1",28393,56.5984573662522
"149",149,"California","Humboldt",6023,40.6993,-123.8756,2680,0.219491622914912,0.172983978984473,1.28167581563852,-0.675942886759126,-1.09048903961513,-0.866211085459724,-1.09376696576695,4.17905734566803,-1.3996766618008,"2020-10-16","2021-03-03","1",135558,19.7701352926423
"150",150,"California","Imperial",6025,33.0395,-115.3654,14679,-1.01580509256113,5.65641796672763,5.59335423541788,2.99232303392349,1.35094202217538,0.95865239693226,-0.925225303765402,3.90418033117523,5.52639442999227,"2020-10-16","2021-03-03","1",181215,81.0032282095853
"151",151,"California","Kern",6029,35.3429,-118.7299,60022,-1.02531616916674,3.45251777184964,2.44155409497501,2.41581992093207,0.671764239216361,0.0480511372857126,0.381623145231487,3.57135296848947,3.52091180400669,"2020-10-16","2021-03-03","1",900202,66.6761460205598
"152",152,"California","Kings",6031,36.0753,-119.8155,13857,-2.83983978982457,3.49243209111931,1.46600806120477,2.6591192194536,0.386711631658814,0.143326730677339,0.875347775936373,2.509687322904,4.68124225669483,"2020-10-16","2021-03-03","1",152940,90.6041584935269
"153",153,"California","Lake",6033,39.0996,-122.7532,2518,0.335435954150621,1.00462004855991,1.80830075774593,0.638205150863042,-0.808942292501439,0.36998783082108,0.650437245563203,2.93823781716435,1.64843978082829,"2020-10-16","2021-03-03","1",64386,39.1078805951604
"154",154,"California","Lassen",6035,40.6736,-120.5943,4352,-5.57577717287615,0.796091591780694,-0.148024083441644,2.46513859699469,-0.815004951967919,-0.647650962520792,2.09655665318083,0.88790016380474,-0.080412666060518,"2020-10-16","2021-03-03","1",30573,142.347823242731
"155",155,"California","Los Angeles",6037,34.3207,-118.2248,880143,-0.02073969206244,2.94560932538476,1.83543470186716,1.03219283967505,-1.43465363531549,-1.46868383034821,-1.13098858890386,5.98555263454324,4.42216582547744,"2020-10-16","2021-03-03","1",10039107,87.6714432867386
"156",156,"California","Madera",6039,37.218,-119.7627,10779,0.425314597471406,3.73441732110529,1.78275414102528,3.01441979921612,0.661980388048418,0.247033433906804,0.304036961855052,3.7134312556733,2.91125807978413,"2020-10-16","2021-03-03","1",157327,68.5133511730345
"157",157,"California","Mendocino",6045,39.4402,-123.3915,2608,0.51562665460272,1.24087011940937,1.06811269504961,0.391562569570333,-1.08524073794509,-1.35208368898591,-0.371477424007552,4.22316119820312,2.15716346759299,"2020-10-16","2021-03-03","1",86749,30.0637471325318
"158",158,"California","Merced",6047,37.1919,-120.7177,19304,-0.784328409718219,3.90653589718487,2.45416132482516,3.31829302698027,1.30578861343279,0.265554226896333,0.572301667723672,3.49841372525168,2.25304554363318,"2020-10-16","2021-03-03","1",277680,69.5188706424661
"159",159,"California","Monterey",6053,36.2172,-121.2392,30956,-0.713328703918078,3.74753316931079,0.66004815951032,2.80843329128072,-0.525698174246024,-0.645453396307111,-1.41207919895399,5.37444866076772,0.756011180243378,"2020-10-16","2021-03-03","1",434061,71.3171650989147
"160",160,"California","Napa",6055,38.5065,-122.3305,7184,0.074637858785224,1.88673563395666,-0.295434618325266,0.243878936789869,-2.27420703674347,-1.94222214609239,-1.96857838022267,3.44518656645263,1.55963397407045,"2020-10-16","2021-03-03","1",137744,52.1547218027645
"161",161,"California","Nevada",6057,39.3014,-120.7685,3456,0.993894637876015,-0.039959098930449,0.361263213960695,-1.52090870780684,-2.3605292386508,-0.995427120345056,-1.38176955720206,3.10923074112204,-1.06733321821809,"2020-10-16","2021-03-03","1",99755,34.6448799558919
"162",162,"California","Orange",6059,33.703,-117.7611,188435,0.054431382689881,1.77353251270276,-0.077195319313933,-0.351516679795759,-2.98889106712051,-2.48080430140035,-1.87631083223701,4.50225578831979,2.33550042996558,"2020-10-16","2021-03-03","1",3175692,59.3366737076517
"163",163,"California","Placer",6061,39.0635,-120.7175,16604,0.506813578119967,0.35349247293399,-0.784328627045614,-1.7569855223164,-2.5438119766811,-2.66093487330481,-1.78816540417505,1.33044499409354,-0.925286288470303,"2020-10-16","2021-03-03","1",398329,41.6841354759508
"164",164,"California","Riverside",6065,33.7437,-115.9938,218925,-0.307414436815067,3.11845488003167,0.715616583782138,1.08475172097835,-0.066564970938346,0.0650098287553345,-0.123296438363685,3.92554058551519,5.58614563033978,"2020-10-16","2021-03-03","1",2470546,88.6140148776829
"165",165,"California","Sacramento",6067,38.4493,-121.3443,70379,0.125850395697092,1.10301089991395,0.603629009151013,-0.191213752612737,-1.17470485833508,-1.40014101767717,-1.23377760864592,2.83979981340519,2.27889474343308,"2020-10-16","2021-03-03","1",1552058,45.3455991979681
"166",166,"California","San Benito",6069,36.6057,-121.075,4367,-0.484791135300353,3.85523405316447,-0.438868386124635,1.0723889221961,-0.894814592517172,0.5003361444079,-1.73085950127829,3.16155727667262,1.73424680615318,"2020-10-16","2021-03-03","1",62808,69.5293593172844
"167",167,"California","San Bernardino",6071,34.8414,-116.1784,225323,-0.439512241974342,3.44820081936025,0.639710923986005,1.34324551543286,0.935458215052049,-0.665797327323837,0.632918677863371,3.41794537043901,5.18432273838398,"2020-10-16","2021-03-03","1",2180085,103.355144409507
"168",168,"California","San Diego",6073,33.0341,-116.7353,211288,-0.520409238252455,1.84682979728155,0.156304177649892,-0.511139860563177,-2.08496731362341,-1.55872270653189,-0.181675293458292,4.00991959869829,3.5205750178595,"2020-10-16","2021-03-03","1",3338330,63.2915260025222
"169",169,"California","San Joaquin",6077,37.9348,-121.2714,45713,-0.422284035796057,2.47667746986907,1.09409037193838,1.76667522713933,-0.990300340740417,-0.349168252967559,-0.116711306561298,3.59483064380978,3.22332860906584,"2020-10-16","2021-03-03","1",762148,59.9791641518445
"170",170,"California","San Luis Obispo",6079,35.3871,-120.4045,15528,-0.123496916084082,0.998691811135869,-0.21628460952192,-1.00812744847206,-2.36387402069148,-1.42162609481336,-1.85820583376925,3.09522861235115,1.07107466282618,"2020-10-16","2021-03-03","1",283111,54.8477452306692
"171",171,"California","Santa Barbara",6083,34.6729,-120.0165,22412,-0.193861699015418,2.75841032041682,0.282992795147832,0.798893963289022,-1.35178220786288,-1.25540745691634,-1.71982269880707,5.25444186424283,1.15124607897232,"2020-10-16","2021-03-03","1",446499,50.1949612429143
"172",172,"California","Santa Cruz",6087,37.0562,-122.0018,12694,0.166162861789774,1.78523593526023,0.573438336089252,-0.36954806904655,-2.08840914731218,-1.77734336687612,-2.49850937515741,4.49437035714208,3.7124794580486,"2020-10-16","2021-03-03","1",273213,46.4619179907252
"173",173,"California","Shasta",6089,40.7637,-122.0405,9077,0.491270548801088,0.05876624804546,0.84211868613176,-0.629987360427722,-1.35609853893606,-1.05361761896285,0.11226531099345,3.30539510865597,2.43886295569509,"2020-10-16","2021-03-03","1",180080,50.4053753887161
"174",174,"California","Siskiyou",6093,41.5927,-122.5404,1322,0.67944601042655,0.249219685703287,1.47682588063215,-0.334321214848268,-0.906950549548954,-0.799470136485271,0.667424574067149,2.1673738565544,0.386595207406863,"2020-10-16","2021-03-03","1",43539,30.3635820758401
"175",175,"California","Solano",6095,38.27,-121.9329,22929,-0.170555966949319,1.44788250644027,-0.031084397094897,-0.128118639389923,-1.4502567519864,-1.62706445989443,-0.744692183286478,2.86965367491164,2.83783206724903,"2020-10-16","2021-03-03","1",447643,51.221620800504
"176",176,"California","Sonoma",6097,38.5283,-122.8874,19243,0.587616150429476,1.33118494153352,-0.645738026073597,-0.343476249682361,-2.91377855994846,-2.06585667663627,-2.31191136293627,3.30319225177834,1.58376137973558,"2020-10-16","2021-03-03","1",494336,38.9269646556189
"177",177,"California","Stanislaus",6099,37.5591,-120.9977,33401,-0.244838970022202,2.92966272441113,0.988755913379702,1.66782321723701,-0.34715983068879,-0.654215251838123,0.336110099644915,3.48998198070381,3.07438316006947,"2020-10-16","2021-03-03","1",550660,60.6563033450768
"178",178,"California","Sutter",6101,39.0346,-121.6948,7085,-0.149672825597695,1.68459875812265,1.3369077981184,1.32536831643738,-0.999195831938188,-1.19244187056113,-0.878266078878927,2.16048058885958,2.49965160090061,"2020-10-16","2021-03-03","1",96971,73.0630807148529
"179",179,"California","Tehama",6103,40.1256,-122.2341,3800,0.208271764281852,1.25026823339087,1.10762916606132,0.574312338117203,-0.352048928826465,-0.0742330812174146,0.977379668224556,3.17669098860518,2.5344121745843,"2020-10-16","2021-03-03","1",65084,58.3860856738983
"180",180,"California","Tulare",6107,36.2201,-118.8005,30519,-0.418773957901205,4.21909383928248,2.38562398746912,2.73735625209597,1.03059586941059,0.0879993305104758,-0.0193427075008081,4.19027870833386,3.17344378364779,"2020-10-16","2021-03-03","1",466195,65.4640225656646
"181",181,"California","Tuolumne",6109,38.0276,-119.9548,3648,-0.480347355360596,0.240452120639419,0.632255033319429,-0.693744095435555,-1.81391472840268,-1.88633710166055,-0.489614655336057,2.26763280497433,-8.45954008496062,"2020-10-16","2021-03-03","1",54478,66.9628106758692
"182",182,"California","Ventura",6111,34.4565,-119.0836,63726,0.027828122762615,2.52630782376646,-0.167408071634539,0.235619109073116,-1.81030415590161,-1.48701841021756,-1.6440606354183,3.61064865547716,1.89345247985746,"2020-10-16","2021-03-03","1",846006,75.3257069098801
"183",183,"California","Yolo",6113,38.6866,-121.9016,9864,0.227020413474647,1.66565463455441,0.750561659901224,-0.379881261962585,-1.17542356113239,-1.80417392043419,-1.84904849240878,3.68235744589146,1.89108872595695,"2020-10-16","2021-03-03","1",220500,44.734693877551
"184",184,"California","Yuba",6115,39.269,-121.3513,4324,-0.709277071458247,1.51680707474291,1.39439048894729,1.19887039771484,-0.440877490210892,1.02722712121034,0.352028468299064,2.63444133188673,2.55525290804632,"2020-10-16","2021-03-03","1",78668,54.965170081863
"185",185,"Colorado","Adams",8001,39.8736,-104.3378,37233,-0.888757598921114,2.37955109799363,-0.705039252308133,0.844814683079469,-1.71916752865263,-0.219358387696969,-1.04058804346453,1.3576605063348,-0.174472086436303,"2020-10-16","2021-03-03","1",517421,71.9588111035308
"186",186,"Colorado","Alamosa",8003,37.5729,-105.7883,1022,-0.191443296480632,2.84575938522785,0.761628347282368,0.284372219162722,-0.819087932062569,-2.3239078533134,-0.354695749621576,-0.249955354397728,-2.47407395169327,"2020-10-16","2021-03-03","1",16233,62.9581716257007
"187",187,"Colorado","Archuleta",8007,37.1935,-107.0483,604,0.7234990634985,0.603680916295535,-0.639940191308643,-0.818470695200278,-3.64343282110812,-0.478725416697905,-0.540958861963006,1.23961011933223,-2.1665269333773,"2020-10-16","2021-03-03","1",14029,43.053674531328
"188",188,"Colorado","Baca",8009,37.3192,-102.5604,250,0.530986315824029,0.129860434104465,0.638104219281089,-0.206867229850535,-1.91432266450623,-0.82779979974198,1.98241331149864,-0.210977357705356,-0.390197216822911,"2020-10-16","2021-03-03","1",3581,69.8129014241832
"189",189,"Colorado","Bent",8011,37.9551,-103.0717,1467,-6.38729537747247,1.75696289395024,1.0261071855856,2.2589455185929,-0.374801832697616,-0.450173334233403,0.403062682408536,1.15294144296208,-0.035487030624636,"2020-10-16","2021-03-03","1",5577,263.044647660032
"190",190,"Colorado","Boulder",8013,40.0925,-105.3577,14044,-0.423874183165931,0.282001155229461,-0.54108810669786,-1.9949029522959,-4.83209186098212,-2.6558631528704,-3.09947362408183,2.18553249815641,-0.480186721586329,"2020-10-16","2021-03-03","1",326196,43.0538694527217
"191",191,"Colorado","Chaffee",8015,38.747,-106.1941,1104,-0.586516807567059,-0.009245833079597,-0.748276029087861,-1.22265973238412,-3.54948261188635,-1.11767144532331,-1.94046797248981,0.510229474010007,-3.73051308907571,"2020-10-16","2021-03-03","1",20356,54.2346236981725
"192",192,"Colorado","Cheyenne",8017,38.828,-102.6035,111,-0.258805211000717,0.162444381777607,-1.49807667785034,-0.54259524775214,-2.91495695682243,2.14651188642469,2.35890565849116,-0.297092928430058,-0.838678000535853,"2020-10-16","2021-03-03","1",1831,60.6226105953031
"193",193,"Colorado","Clear Creek",8019,39.6891,-105.6444,303,-1.00173161647727,-0.196918405080223,-0.380326407568254,-1.16551181113508,-4.08558740138395,0.876679008710274,-0.866326398651789,-0.458761136707728,-5.58617260625552,"2020-10-16","2021-03-03","1",9700,31.2371134020619
"194",194,"Colorado","Conejos",8021,37.2007,-106.1916,396,-0.116738729724935,3.05358651365145,0.011642227802586,0.159288510899366,-0.995402416496043,0.557303312475968,0.345174303135852,0.265075227171566,-2.49047182353898,"2020-10-16","2021-03-03","1",8205,48.2632541133455
"195",195,"Colorado","Costilla",8023,37.2781,-105.4282,156,-0.388081931860942,3.62148426439752,2.63523148804022,0.601601486965316,-0.382723115487573,0.862015931812243,-0.388662147530706,1.62266178518685,-5.67414887590761,"2020-10-16","2021-03-03","1",3887,40.133779264214
"196",196,"Colorado","Delta",8029,38.8614,-107.8629,2281,0.702180637519079,0.380771602291377,0.385607971048215,0.235569775468792,-2.27159030367868,-0.156992780171851,-0.433210036890335,2.08868096750808,-0.445930545252075,"2020-10-16","2021-03-03","1",31162,73.198125922598
"197",197,"Colorado","Dolores",8033,37.7517,-108.5174,66,-0.625158409357971,-0.190427283080567,-0.542243459211779,-1.13811466052376,-3.4608181034706,-0.560851492121524,1.11831733107134,-0.452384796281521,-1.43484825577471,"2020-10-16","2021-03-03","1",2055,32.1167883211679
"198",198,"Colorado","Douglas",8035,39.3297,-104.9296,18325,-0.545973331858231,-0.0420560515735,-2.32669305253805,-2.23657535396017,-4.63853803512988,-0.822853907483228,-2.48222643589001,-1.09514936331409,-1.03587025113804,"2020-10-16","2021-03-03","1",351154,52.1850811894496
"199",199,"Colorado","Eagle",8037,39.6278,-106.6954,3810,-1.63867079325586,1.41923008768538,-1.01171461172354,-0.991141525513299,-4.01145758132114,-0.788998511723538,-2.479586881743,3.92854838616155,-2.25283898051979,"2020-10-16","2021-03-03","1",55127,69.1131387523355
"200",200,"Colorado","Elbert",8039,39.2866,-104.136,1110,-0.482852339562498,-0.127966010880061,-1.88806131751274,-1.4081245499579,-3.34641216203279,1.52024857683132,0.0542197456484637,-0.357845276739505,-2.070964759307,"2020-10-16","2021-03-03","1",26729,41.5279284672079
"201",201,"Colorado","El Paso",8041,38.8321,-104.5255,44229,-0.693772756638485,0.633971066574714,-0.650893133892939,-1.48867780727906,-2.63016164918513,-1.25792138612819,-0.490425148718522,0.977186361477714,-2.53415514731305,"2020-10-16","2021-03-03","1",720403,61.394802631305
"202",202,"Colorado","Fremont",8043,38.473,-105.4397,5027,-3.08878355055537,0.267154993611316,0.729302262987678,1.04418086143278,-1.81578639918346,0.413966303457325,0.292190520714809,0.510443719755664,-2.05378834824693,"2020-10-16","2021-03-03","1",47839,105.081627960451
"203",203,"Colorado","Garfield",8045,39.5993,-107.904,4067,-0.996717624536474,1.45882882909947,-1.31439929640566,-0.2512686546006,-3.37453256693206,-1.12538690127036,-0.873879289242168,1.18411284886353,-1.26031462725945,"2020-10-16","2021-03-03","1",60061,67.7144902682273
"204",204,"Colorado","Grand",8049,40.1026,-106.1183,1155,-1.34699325225448,-0.037921288812037,-1.15378210414618,-0.940229732216718,-3.82492751093382,-0.0100573055963888,-0.935653149310573,1.39687537579383,-3.88477545012326,"2020-10-16","2021-03-03","1",15734,73.4079064446422
"205",205,"Colorado","Gunnison",8051,38.6668,-107.0316,915,-2.04707597537099,-0.045347350734383,-0.534977669014729,-2.45008910833971,-3.73504750818909,-0.679398183522006,-1.68021271671383,2.81348276512064,-3.35847828025358,"2020-10-16","2021-03-03","1",17462,52.3994960485626
"206",206,"Colorado","Huerfano",8055,37.6847,-104.9606,284,0.636185606297508,1.67802647456894,2.22331785249394,0.229711637780346,-2.64955393505761,-0.342090762158969,-0.212434027576205,-0.566623602755576,-5.66287946470957,"2020-10-16","2021-03-03","1",6897,41.1773234739742
"207",207,"Colorado","Jackson",8057,40.6664,-106.3428,42,-0.53925763694635,0.185479815645371,-0.720834386739599,0.745087107556092,-2.91433738810402,-0.990605454071604,0.84436680689708,1.671020261563,-3.0061857275972,"2020-10-16","2021-03-03","1",1392,30.1724137931034
"208",208,"Colorado","Jefferson",8059,39.5864,-105.2505,30461,-0.182927101046525,0.421737537299205,-1.29864030615168,-1.5909579553269,-3.71301461753722,-1.7278853627515,-2.44748857873341,0.39919887900773,-0.556778396135269,"2020-10-16","2021-03-03","1",582881,52.2593805596683
"209",209,"Colorado","Kiowa",8061,38.4327,-102.7403,89,0.563244047624152,-0.059965190205636,-1.34513340731962,-1.07227378175303,-2.26458365864393,2.14643251896401,0.868527810526235,2.43622147287936,-1.91917939942065,"2020-10-16","2021-03-03","1",1406,63.3001422475107
"210",210,"Colorado","Kit Carson",8063,39.3055,-102.603,444,-0.030722662869476,0.620452900612916,-1.14163753850711,-0.739653430385506,-2.19644057862568,0.628938152489919,1.43307064993927,-0.031826975488032,-0.917055422954333,"2020-10-16","2021-03-03","1",7097,62.5616457658166
"211",211,"Colorado","Lake",8065,39.2025,-106.3448,545,-1.94182749089973,1.86454183071689,-1.19306723507959,-0.0250674771950088,-2.72786483107232,0.214262350517538,-1.03784359939723,-1.6990733847567,-5.17192617146048,"2020-10-16","2021-03-03","1",8127,67.0604158976252
"212",212,"Colorado","La Plata",8067,37.2866,-107.8433,2669,-0.168709140947908,0.188518462699022,-0.528521424935369,-2.08153604454737,-3.64438967052309,-2.32923893973497,-2.02766725773315,0.190088293248943,-1.24407329295575,"2020-10-16","2021-03-03","1",56221,47.4733640454634
"213",213,"Colorado","Larimer",8069,40.6664,-105.4611,16910,-0.075396842751913,0.146086068956487,-0.696077847053294,-2.05865432572555,-3.54061093683452,-1.41018936871904,-2.46711573517728,1.11269139536056,-1.02950765810639,"2020-10-16","2021-03-03","1",356899,47.3803513038703
"214",214,"Colorado","Las Animas",8071,37.3158,-104.0386,969,-0.711520931141351,2.29256279702876,1.90226285995573,0.254559512573703,-1.55370540511772,-0.291086807093347,-0.0279845788856239,2.35881443351739,-1.2830893075698,"2020-10-16","2021-03-03","1",14506,66.7999448504067
"215",215,"Colorado","Lincoln",8073,38.9881,-103.514,974,-4.16423122164972,0.435772964797242,0.736952681873822,1.51743554296071,-1.35403732829357,-0.388878675695915,0.298122782121057,1.0914065365963,-2.29282406446555,"2020-10-16","2021-03-03","1",5701,170.847219786002
"216",216,"Colorado","Logan",8075,40.7247,-103.1101,2693,-3.24361054988884,0.580615280806518,-0.490566387675903,0.0351429604422773,-2.01166818810472,-0.767343512730069,0.466252769830684,-0.970528182521963,-1.77112526170906,"2020-10-16","2021-03-03","1",22409,120.174929715739
"217",217,"Colorado","Mesa",8077,39.0183,-108.4664,12436,0.319441750943212,0.358815510500798,-0.331632936069149,-0.721340360240462,-2.26564212500913,-1.77886892680802,-0.889878650445135,0.966916452694927,0.255153427757396,"2020-10-16","2021-03-03","1",154210,80.6432786460022
"218",218,"Colorado","Mineral",8079,37.6689,-106.9241,41,0.817366116118477,-0.294746308213732,-1.36478621849811,-1.62473603842861,-3.73704641132882,-0.676235001953465,-3.32027050710703,4.57906062964679,-6.48014758728827,"2020-10-16","2021-03-03","1",769,53.3159947984395
"219",219,"Colorado","Moffat",8081,40.6184,-108.2074,629,-0.858538257202546,0.478636516115677,0.265380426064562,0.407304484891739,-2.18361936253251,0.42528446624981,0.586205870920496,1.42450974433354,-2.12539723802037,"2020-10-16","2021-03-03","1",13283,47.3537604456825
"220",220,"Colorado","Montezuma",8083,37.3386,-108.5966,1558,0.600610129973764,0.167725831555653,0.347217899229417,-0.439773420043173,-2.63190475936723,-1.24649833763798,-0.989583824906976,0.619662778762441,-0.8180559479559,"2020-10-16","2021-03-03","1",26183,59.5042584883321
"221",221,"Colorado","Montrose",8085,38.4022,-108.2693,2857,0.764288912873436,0.794268725498456,-0.231439472356057,-0.00621589042651483,-2.44965420952749,-1.7989110670346,-0.473250079399758,0.667618613279625,-3.51334454431563,"2020-10-16","2021-03-03","1",42758,66.8179054212077
"222",222,"Colorado","Morgan",8087,40.2626,-103.8097,1631,-0.771883641414932,2.04317152547824,-0.565320505867299,1.22514826714382,-0.621822011486847,-0.75886004489195,0.460049283767997,0.455285340199249,-1.28341867271744,"2020-10-16","2021-03-03","1",29068,56.1098114765378
"223",223,"Colorado","Otero",8089,37.9026,-103.7165,1751,0.319962036292179,2.46356985035421,1.25393360735148,-0.0943747290455077,-0.648195486831886,0.324453897089812,-0.137044547076716,0.792220868253666,-0.960432147961779,"2020-10-16","2021-03-03","1",18278,95.7982273771748
"224",224,"Colorado","Ouray",8091,38.1555,-107.7693,226,0.791222193322002,-0.245254181954742,-1.38283610468528,-2.97327309690089,-4.00932980094411,-2.93777603418146,-1.9761190687821,2.36810192677124,-3.43440320981704,"2020-10-16","2021-03-03","1",4952,45.6381260096931
"225",225,"Colorado","Park",8093,39.1193,-105.7171,485,-0.984740192666782,-0.251721984165701,-1.10271027232977,-1.31687415167327,-3.45440628155737,1.32716944940401,-0.565735397428626,-0.775302837019918,-5.53378271838757,"2020-10-16","2021-03-03","1",18845,25.7362695675245
"226",226,"Colorado","Pitkin",8097,39.2171,-106.9166,1779,-0.645843883960127,0.048793006098822,-1.07131404454647,-2.97416530138809,-4.46119793325632,-0.802907863023025,-2.72018981963222,0.820828405108717,-3.28889538300592,"2020-10-16","2021-03-03","1",17767,100.129453481173
"227",227,"Colorado","Prowers",8099,37.9552,-102.3934,1057,-0.061209884546089,2.21375064662627,-0.074336727107953,1.23701846643926,-0.910040849496307,0.096985709196737,0.717427949147219,0.06437120119553,0.080078824226557,"2020-10-16","2021-03-03","1",12172,86.8386460729543
"228",228,"Colorado","Pueblo",8101,38.1735,-104.5128,13596,0.258348612950372,2.51682088503532,1.34200947815547,-0.212952401813132,-1.27801056897249,-0.754420940552123,-1.03799162440021,1.84748009944462,-1.33540939666422,"2020-10-16","2021-03-03","1",168424,80.724837315347
"229",229,"Colorado","Rio Blanco",8103,39.9798,-108.2171,455,-0.826940115956856,0.062695534673818,-0.618696986910253,-0.858701518812622,-2.72764505601,-2.84331772532654,1.52520405179747,-0.773688538117366,-1.68687899825433,"2020-10-16","2021-03-03","1",6324,71.9481340923466
"230",230,"Colorado","Rio Grande",8105,37.5825,-106.3832,596,0.279701996985494,2.55813942454407,0.695207577563378,-0.946520758849281,-1.72784124783216,-1.40981770332986,-0.082801000395885,-1.8603367006508,-6.35628154439062,"2020-10-16","2021-03-03","1",11267,52.8978432590752
"231",231,"Colorado","Routt",8107,40.4851,-106.9913,1723,-0.989626887492914,-0.260955354943399,-1.55700877623835,-2.45461200663306,-4.28849218891337,-2.56537304950077,-2.67628016661282,2.12274904295372,-3.01445534135138,"2020-10-16","2021-03-03","1",25638,67.2049301817615
"232",232,"Colorado","Saguache",8109,38.0805,-106.2815,205,0.54130146632972,1.88120262238998,2.08446221018058,0.921300089195887,-1.82502246621371,1.52045557610474,0.878925737866468,3.73492132707005,-2.83983642492879,"2020-10-16","2021-03-03","1",6824,30.0410316529894
"233",233,"Colorado","San Miguel",8113,38.0038,-108.4057,723,-1.5489887477223,0.104005707255873,-0.107544318847629,-2.28045011045143,-3.7383200010622,-0.946655940853852,-1.92325878325815,4.79692504747262,-3.6097730554258,"2020-10-16","2021-03-03","1",8179,88.3971145616824
"234",234,"Colorado","Sedgwick",8115,40.8759,-102.3518,175,1.25787412110394,0.540406410707679,0.512028293297131,-0.889817361565943,-2.01386318696124,0.350012544944274,1.19659666416174,-0.242125981867242,-1.34352787486328,"2020-10-16","2021-03-03","1",2248,77.846975088968
"235",235,"Colorado","Summit",8117,39.6342,-106.1164,2513,-2.34669756576346,0.348549805949695,-1.90351008116351,-1.25761783537792,-4.28847528134136,-1.20663522297973,-2.91336060181822,3.22122647271447,-5.52957317062166,"2020-10-16","2021-03-03","1",31011,81.0357615039825
"236",236,"Colorado","Teller",8119,38.8822,-105.1618,1092,0.178985919610082,-0.151978801713882,-1.18312147712235,-1.90268552846191,-3.45244125449562,0.0532822680726763,-0.518120950874994,0.784901909066165,-2.40498934006636,"2020-10-16","2021-03-03","1",25388,43.0124468252718
"237",237,"Colorado","Washington",8121,39.971,-103.2012,314,-1.08389322925032,0.060673218451515,-1.08326991895454,-1.0478005865271,-2.34780382783015,0.433254855179888,2.26725880513671,0.944439965809305,-1.38650596466438,"2020-10-16","2021-03-03","1",4908,63.9771801140994
"238",238,"Colorado","Weld",8123,40.5548,-104.3925,20391,-0.742502268549608,1.52506374059608,-0.868336381803665,0.0495819793343379,-1.43126877437994,-0.0184459670775361,-1.20585161997448,0.841418109691948,-0.935745908722577,"2020-10-16","2021-03-03","1",324492,62.8397618431271
"239",239,"Colorado","Yuma",8125,40.0029,-102.4242,540,-0.228833169196866,1.22079352078746,-1.08298712049061,-0.33428664387594,-2.26032533291417,-0.137558687791524,2.32414578211177,0.81683736396446,-1.16130654453878,"2020-10-16","2021-03-03","1",10019,53.8975945703164
"240",240,"Connecticut","Fairfield",9001,41.2708,-73.3894,59944,0.340323993190158,0.551898123743532,0.757011807378907,-0.964144845854494,-3.47797822839315,-1.80612806583258,-2.21515015362723,2.56770304951656,-0.388450895704004,"2020-10-16","2021-03-03","1",943332,63.5449661412949
"241",241,"Connecticut","Hartford",9003,41.8064,-72.7329,54430,0.476264747416638,0.616671363616137,0.569716820787766,-0.969887892550777,-1.46294489200795,-2.18093084413381,-2.34431692261804,1.49455828553669,0.196737351975159,"2020-10-16","2021-03-03","1",891720,61.0393397030458
"242",242,"Connecticut","Litchfield",9005,41.7925,-73.2453,9251,0.400579629145302,-0.505996652992935,-0.700361375389287,-1.25173879977762,-2.60018661281952,-0.38884143955598,-2.44143818928487,0.426047423603738,-1.6294176085108,"2020-10-16","2021-03-03","1",180333,51.2995402948989
"243",243,"Connecticut","Middlesex",9007,41.4632,-72.5351,8759,0.720250894735826,-0.349438043383315,-0.817721522955164,-1.79755000617198,-2.86973262201167,-0.950301175946548,-3.02158060757804,-0.099541157065562,-0.708615621626698,"2020-10-16","2021-03-03","1",162436,53.9227757393681
"244",244,"Connecticut","New Haven",9009,41.4105,-72.9321,56913,0.725857841503527,0.633982988584919,0.752330609484432,-0.4911833984357,-1.28845008304514,-1.39047887647087,-2.13931350711665,2.05761239215234,-0.220546706161023,"2020-10-16","2021-03-03","1",854757,66.5838361078061
"245",245,"Connecticut","New London",9011,41.4866,-72.1015,16267,-0.079890648594163,-0.136111899742672,-0.011129477828885,-1.16429976732508,-2.0381329286186,-0.83853956262773,-2.13435196159653,0.60297459053601,-0.997406235967361,"2020-10-16","2021-03-03","1",265206,61.3372246480095
"246",246,"Connecticut","Tolland",9013,41.855,-72.3365,6347,-0.206742618595751,-0.459483617852268,-0.420751787129218,-1.70271046161666,-2.65492595334946,0.0595121445947822,-2.46425656360454,-0.040302879558147,-0.619132883374218,"2020-10-16","2021-03-03","1",150721,42.1109201770158
"247",247,"Connecticut","Windham",9015,41.83,-71.9874,8028,-0.000486433096442,-0.340297311978544,0.203738707326137,0.0377488380852737,-1.11185417179456,0.20105767264125,-1.6024858444546,-0.321331092824439,-0.816905954920875,"2020-10-16","2021-03-03","1",116782,68.7434707403538
"248",248,"District of Columbia","District of Columbia",11001,38.9047,-77.0163,24563,0.671194947405027,2.0438452608461,2.64684099316438,-3.30393051686411,-3.16588932195898,-3.09173758999335,-0.17217982302823,3.95521567857817,1.18073637088453,"2020-10-16","2021-03-03","1",705749,34.804158418928
"249",249,"Florida","Alachua",12001,29.6747,-82.3577,13151,0.566146607197141,0.513959283133596,0.289169880740898,-1.48696062898526,-0.761173368109188,-5.05187459640479,-0.973227562806913,3.04211441765482,1.8869820218244,"2020-10-16","2021-03-03","1",269043,48.8806621989793
"250",250,"Florida","Baker",12003,30.3311,-82.2846,1639,-1.64517799884118,-0.191520962652363,-0.493748848028577,1.34383471954434,0.392941711837586,0.7220363331674,1.66427487685804,-0.63981813522159,1.66496586348817,"2020-10-16","2021-03-03","1",29210,56.110920917494
"251",251,"Florida","Bay",12005,30.2652,-85.6203,12407,0.137441066927081,-0.090176853354433,-0.28583773199459,-0.352062827624836,-0.990361334948585,-0.244553465048241,0.648479913076511,0.843788534748248,2.51520612048702,"2020-10-16","2021-03-03","1",174705,71.0168569874932
"252",252,"Florida","Bradford",12007,29.9499,-82.1688,1660,-2.57146855727039,0.140811044013818,1.08563357949045,2.05181761859259,1.23792763540611,1.1111903373932,1.17945904288195,2.78764866126728,1.09405113590335,"2020-10-16","2021-03-03","1",28201,58.8631608808198
"253",253,"Florida","Brevard",12009,28.2937,-80.7323,24035,0.79338509321813,0.148492082135302,-0.526792938326479,-0.720105239047519,-0.902015843162536,-0.744046443664777,-0.368303756068855,1.05181185600145,2.9074329562675,"2020-10-16","2021-03-03","1",601942,39.9290961587661
"254",254,"Florida","Broward",12011,26.1523,-80.4871,116328,0.433020432081643,2.16278688770261,0.021434574610092,-0.258055666891516,-0.814046194444851,-1.34012632266155,-0.351463169318799,3.87963463124737,3.96903601065278,"2020-10-16","2021-03-03","1",1952778,59.570519536783
"255",255,"Florida","Calhoun",12013,30.406,-85.1972,955,-1.89698099464243,-0.099933831639224,1.83164774625416,2.92386762419747,1.11028607823406,0.102859827030349,2.65074753566212,0.231460613525559,2.29940464047789,"2020-10-16","2021-03-03","1",14105,67.7064870613258
"256",256,"Florida","Charlotte",12015,26.9055,-81.9123,7419,2.09104854446013,-0.253857660579741,-0.487074384005554,-0.0828343997178171,-1.49291041087503,-0.195499022677527,-1.40489202155746,1.6172695057479,2.87827997723121,"2020-10-16","2021-03-03","1",188910,39.2726695251707
"257",257,"Florida","Citrus",12017,28.8489,-82.4794,6814,1.8571750687376,-0.438560463118028,0.500611969869726,0.440336772604234,-1.04316993035645,0.411940695454733,-0.624163802906262,0.754647342886841,1.53052599995611,"2020-10-16","2021-03-03","1",149657,45.5307803844792
"258",258,"Florida","Clay",12019,29.9831,-81.8579,11150,0.104355209374747,0.214868938693429,-1.59896098730349,-0.646651333256127,-0.451853684087943,-0.0417166532095674,0.551546760165776,-0.147113155149253,1.30832806121788,"2020-10-16","2021-03-03","1",219252,50.8547242442486
"259",259,"Florida","Collier",12021,26.1107,-81.3476,17013,1.02910652068153,1.02200934404373,-0.303886941418819,0.405713348924534,-1.99668119066398,-0.951356803899388,-1.52131429532199,3.32598768710009,3.14161030640118,"2020-10-16","2021-03-03","1",384902,44.2008615179968
"260",260,"Florida","Columbia",12023,30.2242,-82.6215,3614,-0.766841337600348,0.184386312408218,0.323194509856784,0.94019699740392,0.027073662417995,-0.0226882678289453,1.07255404538246,0.123933559435058,2.23098319981629,"2020-10-16","2021-03-03","1",71686,50.4143068381553
"261",261,"Florida","DeSoto",12027,27.1864,-81.8095,2222,-2.32650480670671,1.42712847630372,0.474943629457111,3.47561913394063,2.64990760305458,1.11402767546196,1.03329094223957,0.915064105939715,2.99031525496184,"2020-10-16","2021-03-03","1",38001,58.4721454698561
"262",262,"Florida","Dixie",12029,29.6082,-83.1588,632,-1.89036465571542,-0.317633875177004,0.83028200671155,2.55117191305659,1.10747878712835,1.76490202433904,1.97406934756465,-1.48607369556093,1.89817838486584,"2020-10-16","2021-03-03","1",16826,37.5609176274813
"263",263,"Florida","Duval",12031,30.3316,-81.6708,56552,0.323302772776233,0.985820436609666,-0.07116769278226,-0.431971156140474,-0.141668050416713,-1.45483069250129,-0.202183554815927,1.56416727780725,3.26191930139806,"2020-10-16","2021-03-03","1",957755,59.0464158370356
"264",264,"Florida","Escambia",12033,30.6689,-87.3628,21011,0.196055796661623,0.46983756350554,0.529998499754797,-0.487662766009966,-0.329269234232891,-0.865310306304293,0.695259189379375,0.354744269002191,2.25991008560115,"2020-10-16","2021-03-03","1",318316,66.0067354452808
"265",265,"Florida","Flagler",12035,29.4614,-81.3136,4106,1.72400919361866,0.12770350428494,-0.357552350843999,-0.237013790235176,-0.788919521252628,0.215668011221156,-1.01288354550201,1.76933767036941,1.65091224098948,"2020-10-16","2021-03-03","1",115081,35.6792172469826
"266",266,"Florida","Franklin",12037,29.8765,-84.814,592,-2.67792009562915,-0.094966716301359,1.36653969208026,2.24254287785815,0.832472749207885,1.10708823227122,0.606865803981855,0.69494657825021,1.184159272193,"2020-10-16","2021-03-03","1",12125,48.8247422680412
"267",267,"Florida","Gadsden",12039,30.5795,-84.6136,2449,1.21809723604606,1.79107812952462,1.72276379781779,1.77225140457657,2.61576971337572,1.26173935448099,0.565490191478307,0.376752035699243,2.73563619290903,"2020-10-16","2021-03-03","1",45660,53.6355672360929
"268",268,"Florida","Gilchrist",12041,29.7258,-82.8004,881,-0.57736842305144,-0.333746327595987,-0.134557015965357,1.30475254044359,0.168471720398383,0.778123448747994,1.31853658587967,-0.330790938510518,2.01015883109938,"2020-10-16","2021-03-03","1",18582,47.4114734689484
"269",269,"Florida","Glades",12043,26.9564,-81.1891,318,-1.90120087139691,0.907307444904916,0.395188969780373,4.29592333227107,1.89243927537595,0.524194074652726,1.26787390443712,1.38602972890848,2.46737894444126,"2020-10-16","2021-03-03","1",13811,23.0251249004417
"270",270,"Florida","Gulf",12045,29.9555,-85.2266,955,0.475438045383008,-0.335925345518109,-0.045669130747633,0.799527674351683,-0.544470510575563,0.51632072437812,0.158146126291514,1.91990221020415,2.6804785933285,"2020-10-16","2021-03-03","1",13639,70.0197961727399
"271",271,"Florida","Hamilton",12047,30.4964,-82.9479,683,-3.72838781463591,1.00761563882253,1.42091999159423,3.57615156855347,1.94279778466851,1.72774165494194,1.34783038672152,1.81242805121166,2.11952758264078,"2020-10-16","2021-03-03","1",14428,47.3385084557804
"272",272,"Florida","Hardee",12049,27.4927,-81.81,1288,-1.46501000163155,1.98422237169013,1.17196278560523,3.04782711876168,2.5926551048028,1.00624263220685,1.61576645511913,0.329607238386009,3.19246603031669,"2020-10-16","2021-03-03","1",26937,47.8152726732747
"273",273,"Florida","Hendry",12051,26.5535,-81.1659,2186,-1.61922827784572,2.82953669522997,0.695775887174671,3.66440763443462,2.12593765539036,0.807906891283176,1.84347768335544,1.67910500308714,3.25749738526046,"2020-10-16","2021-03-03","1",42022,52.0203702822331
"274",274,"Florida","Hernando",12053,28.5536,-82.425,8034,1.24973212321225,0.212211556130209,-0.450496508595259,0.183943716293547,-0.057297989330857,0.254541114559371,-0.127109577684918,1.21548281322067,2.59325033907704,"2020-10-16","2021-03-03","1",193920,41.4294554455446
"275",275,"Florida","Highlands",12055,27.3433,-81.341,4865,1.74693385486714,0.764348225245893,0.397302869988339,0.931363898625324,1.0711765344669,-0.0108678030226574,0.216230516685034,1.11641743270089,3.12108671008736,"2020-10-16","2021-03-03","1",106221,45.8007362009396
"276",276,"Florida","Hillsborough",12057,27.9291,-82.3092,67268,0.138154242183021,1.52805179164891,0.022077552253301,-0.245817468621776,-1.09698039780777,-1.08413881952903,-0.127835018950283,1.86159567901697,1.02574397836888,"2020-10-16","2021-03-03","1",1471968,45.6993630296311
"277",277,"Florida","Holmes",12059,30.8679,-85.814,1372,-1.51675012232468,-0.499713813903116,0.722652186530309,2.08649419898719,1.1071580010272,0.577437598731066,1.84356285851231,1.08299513466754,2.31729093013644,"2020-10-16","2021-03-03","1",19617,69.9393383290004
"278",278,"Florida","Indian River",12061,27.6943,-80.6062,7613,2.04342529404938,0.203458276786134,-0.099886160559836,-0.313730068352411,-1.15593049539136,-0.591235430742598,-1.38777470004551,1.73809414247865,2.98846650077036,"2020-10-16","2021-03-03","1",159923,47.6041595017602
"279",279,"Florida","Jackson",12063,30.7954,-85.2155,2917,-1.85606354753801,0.353640523797058,0.446423997069388,1.76442996600071,0.865727416973028,0.715192438506984,1.38878941420338,0.327556634573796,2.50344307763973,"2020-10-16","2021-03-03","1",46414,62.8474167277115
"280",280,"Florida","Jefferson",12065,30.4375,-83.8953,796,-0.730906065646959,0.575983487450645,0.628985939484695,1.30623661570773,0.217553500415802,1.1637723190213,0.870009423203548,-0.865638697014131,2.52195530889059,"2020-10-16","2021-03-03","1",14246,55.8753334269269
"281",281,"Florida","Lake",12069,28.7615,-81.7113,16758,1.18092476635157,0.573144645606896,-0.722911596986002,-0.147708662644631,0.027968911850935,-0.321969795116122,-1.15877265222754,1.12466601548416,2.81001992205052,"2020-10-16","2021-03-03","1",367118,45.6474485042956
"282",282,"Florida","Lee",12071,26.5778,-81.8337,36440,1.18859138899834,0.779310155095649,-0.468725902001333,0.251781464792932,-1.63083327768731,-0.404747926149691,-1.12782819772945,2.75489282795545,2.72719180400343,"2020-10-16","2021-03-03","1",770577,47.2892391026465
"283",283,"Florida","Leon",12073,30.458,-84.2779,17753,0.909673192863738,0.696322915291256,0.051551339384388,-1.75521747751922,-0.454153359783374,-0.820486678776133,-0.242193721895551,2.64630787694225,2.22811004178308,"2020-10-16","2021-03-03","1",293582,60.4703285623778
"284",284,"Florida","Levy",12075,29.3184,-82.7436,1799,0.888585092234498,-0.024138248339393,0.808825859296416,1.0662920792746,0.64658511856964,1.33061118103434,0.759564563061668,0.176526428517767,1.26424960397287,"2020-10-16","2021-03-03","1",41503,43.3462641254849
"285",285,"Florida","Liberty",12077,30.2414,-84.8829,522,-5.61728722771745,0.251776525597889,0.896259242977361,3.11986748237272,1.48177196119856,1.35944828708888,2.87775586210052,0.050751964381165,2.42733789187417,"2020-10-16","2021-03-03","1",8354,62.4850371079722
"286",286,"Florida","Madison",12079,30.4441,-83.4701,951,-1.28352929881743,0.87813873065086,1.68214250979788,1.93711400649111,2.55663842219932,1.39150499713064,1.14008896101836,1.98417833996047,2.1831641055822,"2020-10-16","2021-03-03","1",18493,51.4248634618504
"287",287,"Florida","Manatee",12081,27.4719,-82.3153,19811,1.37594251057388,0.407619975553472,-0.7877190002497,-0.145988052522447,-1.1258414232341,-0.23308778106577,-0.915846093645207,2.12422138208017,2.77145495951715,"2020-10-16","2021-03-03","1",403253,49.1279668099183
"288",288,"Florida","Marion",12083,29.2102,-82.0567,17474,1.61113508559893,0.491356567816427,-0.112810816321772,0.701685111847904,0.392731303241643,-0.00321635290303668,-0.501619148460719,1.11233296580693,2.0421940602104,"2020-10-16","2021-03-03","1",365579,47.7981503313921
"289",289,"Florida","Martin",12085,27.0775,-80.4315,5537,1.23648091988707,0.101418168704042,-0.32974015005728,-0.486635717817967,-1.88742971718341,-0.811159073869048,-1.13710649123646,2.11851718613439,1.9465083403622,"2020-10-16","2021-03-03","1",161000,34.3913043478261
"290",290,"Florida","Monroe",12087,25.3156,-81.1106,3889,-0.717866802608068,0.826419005093928,-0.724964561081479,-0.746983633389178,-1.60450144161747,-0.689051285300469,-0.718349687785075,4.01649583951302,2.97771632634036,"2020-10-16","2021-03-03","1",74228,52.3926281187692
"291",291,"Florida","Nassau",12089,30.6106,-81.8016,5439,0.656725539667939,-0.408540358704924,-1.30845509032429,-0.455717077020543,-1.55040600320997,0.50596108759694,-0.874585468970625,-0.074774220305779,2.44544257345495,"2020-10-16","2021-03-03","1",88625,61.3709449929478
"292",292,"Florida","Okaloosa",12091,30.6913,-86.5917,13384,-0.593551779150284,0.051377604736027,-1.01515271726992,-0.899935927156998,-1.26255789945102,-1.16375805078877,0.816212295984436,0.550572539578756,1.99487007930608,"2020-10-16","2021-03-03","1",210738,63.5101405536733
"293",293,"Florida","Okeechobee",12093,27.3864,-80.8886,1917,-1.62212255728709,1.00114297853708,0.69782425912227,1.9276343652008,0.256445857351705,0.282782257499751,1.24096047142467,0.937118099446087,1.37464956184342,"2020-10-16","2021-03-03","1",42168,45.4610130904952
"294",294,"Florida","Orange",12095,28.5144,-81.3235,72041,-0.103006092358834,1.88390662075044,0.116934918272668,-0.322095821648294,-0.870686855939464,-1.01018054324735,-0.346889390609124,2.44703670693701,2.84079594830508,"2020-10-16","2021-03-03","1",1393452,51.6996638563797
"295",295,"Florida","Osceola",12097,28.0627,-81.1495,23689,-0.193324185003866,2.80087257126387,0.03570123205796,0.569050263152694,0.395573805017026,0.65006535255476,0.0235119114434088,3.15173009776707,2.1016505851025,"2020-10-16","2021-03-03","1",375751,63.0444097287832
"296",296,"Florida","Palm Beach",12099,26.6476,-80.4655,72978,0.949972153957784,1.25974298622631,-0.144493614224381,-0.0157558522470751,-1.63127251844546,-1.29435931114654,-1.2664714757463,3.46961161508402,3.19049323530041,"2020-10-16","2021-03-03","1",1496770,48.7569900519118
"297",297,"Florida","Pasco",12101,28.3091,-82.3932,23569,0.793054501765676,0.369034614353257,-0.264291694544188,-0.0625195701945298,-0.844693169771422,0.14760148708757,-0.467791336914772,1.2716367014606,2.66673452490926,"2020-10-16","2021-03-03","1",553947,42.5473917179802
"298",298,"Florida","Pinellas",12103,27.9196,-82.7256,43315,1.33338315856536,0.101996543159494,-0.38031344265582,-0.797936135404819,-1.92387183832974,-1.43796272508608,-0.965045096242712,2.40432878128645,3.10549104898258,"2020-10-16","2021-03-03","1",974996,44.4258232854289
"299",299,"Florida","Polk",12105,27.9489,-81.6976,35924,0.444830122730111,1.30802736945487,0.109061257542341,0.767731851403776,0.253477398460088,0.321087069084816,-0.108441893772795,1.83806927802373,1.68919332884742,"2020-10-16","2021-03-03","1",724777,49.5655905195667
"300",300,"Florida","Putnam",12107,29.6087,-81.7443,3615,0.611540946320011,0.324726827109501,2.27415288249774,1.78366149305735,1.18485978224167,0.626661918222394,0.888211744277463,1.34738497911445,1.08796882470866,"2020-10-16","2021-03-03","1",74521,48.5098160250131
"301",301,"Florida","St. Johns",12109,29.9016,-81.4407,14288,0.585636055326445,-0.259024037622771,-1.59782718442249,-1.24291687563275,-2.87470459145112,-1.10063645449763,-1.60064558232058,0.212599890027565,2.53406659876729,"2020-10-16","2021-03-03","1",264672,53.9837988151372
"302",302,"Florida","St. Lucie",12111,27.3773,-80.472,13814,0.896163724033215,1.17746980978869,-0.432084378583636,0.466067534648583,-0.226025918939353,0.52540176389201,-0.321466305380737,2.01979128864224,3.11952734275506,"2020-10-16","2021-03-03","1",328297,42.0777527665498
"303",303,"Florida","Santa Rosa",12113,30.7004,-87.022,11553,-0.683067860867698,-0.325108915022615,-1.59299011790331,-0.506741781888002,-1.4150577211262,0.277074551716058,0.774093321807664,0.30402828034034,1.85381262331356,"2020-10-16","2021-03-03","1",184313,62.6814169374922
"304",304,"Florida","Sarasota",12115,27.1845,-82.3315,18312,2.2669081294012,-0.191112147373756,-1.0551273076913,-0.826004673841749,-2.42170642273021,-0.998960625514375,-1.85101331915093,1.54598117136116,1.47581931313271,"2020-10-16","2021-03-03","1",433742,42.2186461075939
"305",305,"Florida","Seminole",12117,28.717,-81.2363,17859,0.441591182814877,0.931887868650223,-1.13096905795123,-1.33527790408929,-1.83169452361437,-0.798806760902181,-0.909732087427609,1.23288756802535,2.49982685450928,"2020-10-16","2021-03-03","1",471826,37.8508178862547
"306",306,"Florida","Sumter",12119,28.7048,-82.081,5364,3.10237368613784,-0.324446425311435,0.021044688579008,0.834108256729773,-0.931023300538446,0.688058384382055,-2.51643394315941,0.757493268494993,1.58196468539072,"2020-10-16","2021-03-03","1",132420,40.5074762120526
"307",307,"Florida","Suwannee",12121,30.1956,-82.9915,2228,-0.434977491648084,0.156792942657941,0.584934917280766,1.80500709211392,0.251681085815848,1.49328424068864,1.50594429791394,0.74559267266101,2.10930834956958,"2020-10-16","2021-03-03","1",44417,50.160974401693
"308",308,"Florida","Taylor",12123,30.047,-83.6035,1232,-2.01543200998935,0.051924061287256,0.505052151006056,1.97897157267104,0.987159200674825,0.893090869029509,1.70744966613213,-0.123975144138941,1.11507424114547,"2020-10-16","2021-03-03","1",21569,57.1190133988595
"309",309,"Florida","Union",12125,30.0439,-82.3714,675,-6.88798503690126,0.309046183550632,-0.889023750701246,3.20094869643181,0.788366883830644,1.08459579404194,1.8262620052857,-0.365906723059175,1.05609192604889,"2020-10-16","2021-03-03","1",15237,44.3000590667454
"310",310,"Florida","Volusia",12127,29.0584,-81.1819,22972,0.983439361864309,0.437714307357289,-0.280591771614467,-0.271409302056106,-0.338768829948479,-0.355147413875301,-0.598008543752844,1.86304857224162,2.0674617054863,"2020-10-16","2021-03-03","1",553284,41.5193643770649
"311",311,"Florida","Wakulla",12129,30.1673,-84.4007,1946,-2.01233427933837,-0.171100082233164,-1.26737707991243,0.651861152902562,-0.868459308251136,1.1541650012093,0.997766471505521,0.051948736812186,1.43676874261693,"2020-10-16","2021-03-03","1",33739,57.6780580337295
"312",312,"Florida","Walton",12131,30.6436,-86.1697,4908,-0.067998277359857,-0.340469956133896,-0.404640560586987,-0.40031293291693,-1.58371056225844,-0.0718931149976996,0.476444526698672,1.25766723631185,1.97080850829731,"2020-10-16","2021-03-03","1",74071,66.2607498211176
"313",313,"Florida","Washington",12133,30.6106,-85.6653,1481,-1.99655091662738,-0.195512132022391,0.266579736681304,1.43560646930689,1.10732260758276,1.02023350764491,1.94059003647966,0.493716793956751,2.30478070496745,"2020-10-16","2021-03-03","1",25473,58.1399913634044
"314",314,"Georgia","Appling",13001,31.7492,-82.2889,717,-0.007840035479337,0.478720746076758,1.0212306694464,1.70993380989905,1.62565852979899,1.08235506076042,2.04849635148756,0.706610668906038,1.98643716714912,"2020-10-16","2021-03-03","1",18386,38.9970629827042
"315",315,"Georgia","Atkinson",13003,31.2971,-82.8801,291,-0.692786435919671,1.33476929010794,0.967188700282246,4.40289588181219,3.15177307759437,0.678687804616596,2.08077290097892,-0.79173278788074,1.32776225656489,"2020-10-16","2021-03-03","1",8165,35.6399265156154
"316",316,"Georgia","Bacon",13005,31.5537,-82.4527,394,0.456190396033111,0.24064283910187,1.4915378316157,1.6731698727917,1.65756737428465,0.00928317705039206,2.49909414768583,0.581318276258731,1.91984713490142,"2020-10-16","2021-03-03","1",11164,35.2920100322465
"317",317,"Georgia","Baldwin",13009,33.0692,-83.2496,1490,-0.525781046576382,1.09747186274071,1.88926907543406,0.448562018916108,1.94236278638101,0.25929634792365,0.554987091839642,2.14439012228733,1.86946224147505,"2020-10-16","2021-03-03","1",44890,33.1922477166407
"318",318,"Georgia","Banks",13011,34.3541,-83.4974,1023,-0.525121394685902,-0.410512385962645,-0.136353415310179,1.70978082158181,0.418347482650002,1.58103235502057,1.05008784137674,0.43873803589011,1.81720115015525,"2020-10-16","2021-03-03","1",19234,53.1870645731517
"319",319,"Georgia","Barrow",13013,33.9932,-83.7127,5621,-0.118867751131981,0.435360174333223,-1.67290655787282,0.477437779575838,0.025641056310287,1.22588258739232,0.579043174113182,0.671905726827898,1.02511776469082,"2020-10-16","2021-03-03","1",83240,67.5276309466603
"320",320,"Georgia","Bartow",13015,34.2377,-84.8403,6992,-0.052536479912471,0.078559991998256,-0.743348657851767,0.655846923292896,-0.301130883720205,0.63435608554178,0.594049090993545,0.571479185225556,2.17196776958639,"2020-10-16","2021-03-03","1",107738,64.8981789155173
"321",321,"Georgia","Ben Hill",13017,31.7598,-83.2205,625,1.24507754384171,1.04155139316028,2.08185759916587,1.86303627100421,2.95285152041145,0.170763280554885,1.79800831002169,0.025833212298034,1.47682143633739,"2020-10-16","2021-03-03","1",16700,37.4251497005988
"322",322,"Georgia","Berrien",13019,31.276,-83.2296,537,0.164013730216546,-0.161117317970137,1.11096256385925,2.06219950883674,0.841498641892628,1.46691858791996,1.85704163662127,0.276461136655341,1.32606120910745,"2020-10-16","2021-03-03","1",19397,27.6846935093056
"323",323,"Georgia","Bibb",13021,32.8065,-83.6974,6440,1.16476986715688,1.84381723112445,3.02661158378682,0.158141227682578,2.10045439071285,-2.16589024778623,0.546214994919246,2.06036266292472,2.28297028397955,"2020-10-16","2021-03-03","1",153159,42.0478065278567
"324",324,"Georgia","Bleckley",13023,32.4344,-83.3279,292,0.726873667434719,0.437131596202732,1.02051398160309,-0.220055442218527,0.95448464929062,0.965156154038224,1.9678749290203,-0.09974845602048,1.16948184111516,"2020-10-16","2021-03-03","1",12873,22.6831352443098
"325",325,"Georgia","Brantley",13025,31.1969,-81.9819,475,0.117556538160592,-0.651053148601919,0.490973176536736,1.91934014989302,1.12316910921954,1.67507190070802,2.2280820373524,0.276167170259014,1.13099770528687,"2020-10-16","2021-03-03","1",19109,24.8573970380449
"326",326,"Georgia","Brooks",13027,30.842,-83.5802,361,0.887786842456465,0.809690729573482,2.51478974860369,1.39053359605573,1.88528661506417,1.60707836529884,0.859639034698898,3.12835105905868,0.964975899765491,"2020-10-16","2021-03-03","1",15457,23.3551141877467
"327",327,"Georgia","Bryan",13029,32.0145,-81.4436,1265,-0.375522274221555,0.211441052734414,-1.75363862236481,-0.874421927780275,-0.66863358368603,-0.0288475678607512,0.719353996123377,0.005660370607969,2.33319322607858,"2020-10-16","2021-03-03","1",39627,31.9226789815025
"328",328,"Georgia","Bulloch",13031,32.3968,-81.7432,2075,-0.048533368272701,0.705427105638885,0.617670112469389,0.178749647043847,1.04940244750775,0.259820357630639,0.509625551769789,1.83623525291733,1.24607467697889,"2020-10-16","2021-03-03","1",79608,26.065219575922
"329",329,"Georgia","Burke",13033,33.0611,-82.0009,808,0.885081848641157,1.4949621378086,1.62261422703938,1.17348417651033,2.24992399689513,1.11098141320029,1.01077200749818,0.121016000251085,2.39180021476118,"2020-10-16","2021-03-03","1",22383,36.0988250011169
"330",330,"Georgia","Butts",13035,33.2879,-83.9572,1284,-1.70362482726708,0.516006121398213,-0.68162326608836,2.21646045567104,1.54125424452346,1.37226854699456,1.04016269396307,0.689326314373567,0.888160097324863,"2020-10-16","2021-03-03","1",24936,51.4918190567854
"331",331,"Georgia","Calhoun",13037,31.5292,-84.6245,187,-5.12026859203058,1.77778473145053,1.70119481709874,2.54927611952354,3.74307211888517,1.10419969860831,0.824197442121406,0.873881786157145,1.96477621894481,"2020-10-16","2021-03-03","1",6189,30.2148973986104
"332",332,"Georgia","Camden",13039,30.9306,-81.67,1698,-0.933549718296463,0.285303445510881,-0.584852654456071,-0.341118420590598,0.196713305837798,0.870474141591066,0.869284797975135,1.46615968181456,1.74672005810293,"2020-10-16","2021-03-03","1",54666,31.0613544067611
"333",333,"Georgia","Candler",13043,32.4034,-82.0737,213,0.476588300998167,0.903606429976622,1.45049497662453,2.55638252009699,2.30536728942904,1.34517624325289,1.5058864027841,2.12035716914315,1.4534205217561,"2020-10-16","2021-03-03","1",10803,19.7167453485143
"334",334,"Georgia","Carroll",13045,33.5828,-85.0798,3888,0.199914971988059,0.327005672989131,-0.294709061319798,0.53682086176724,0.311901577178193,0.454383084714413,0.909576425295909,0.303702653197805,0.395273108999011,"2020-10-16","2021-03-03","1",119992,32.4021601440096
"335",335,"Georgia","Catoosa",13047,34.9036,-85.1382,3827,0.650293624386692,-0.640286765378602,-1.17900162199324,0.141843446381145,-0.770602429550387,0.582270078214551,0.439935742147342,-0.573357562246048,2.27270740964448,"2020-10-16","2021-03-03","1",67580,56.6291802308375
"336",336,"Georgia","Charlton",13049,30.7817,-82.1379,376,-4.10588913996938,0.608314654809034,1.55883987746678,2.45693793612601,2.4772565443775,1.29624122586328,2.0978031128805,0.767445040669039,2.31646298009976,"2020-10-16","2021-03-03","1",13392,28.0764635603345
"337",337,"Georgia","Chatham",13051,32.0042,-81.1328,9654,0.657485924275813,1.42012557517623,0.280225611470624,-0.928799875469984,0.163866667451874,-1.22665256676864,-0.0711947195401739,1.9710280119276,2.40391918584172,"2020-10-16","2021-03-03","1",289430,33.3552154234184
"338",338,"Georgia","Chattahoochee",13053,32.347,-84.787,965,-7.61437825944551,0.807162356121106,-0.167571919429317,-0.73069887145759,1.48410537918852,-15.1374863058293,1.60821894648878,2.92198214451049,2.09709261776847,"2020-10-16","2021-03-03","1",10907,88.4752910974603
"339",339,"Georgia","Chattooga",13055,34.475,-85.3453,1237,-0.456976374926489,-0.214463070492737,0.60027334365939,3.15818522942305,1.62641885261382,1.36112532585724,0.98087428345043,0.941808202934655,1.94032860910926,"2020-10-16","2021-03-03","1",24789,49.901165839687
"340",340,"Georgia","Cherokee",13057,34.2439,-84.4762,13736,0.001949873307512,0.002874791756199,-1.93847563860546,-0.903938501007189,-1.33313633524632,0.285450181575049,-0.29383880587039,0.079880440331182,1.00437877479875,"2020-10-16","2021-03-03","1",258773,53.0812720028751
"341",341,"Georgia","Clarke",13059,33.9512,-83.3673,6587,0.627834010113457,0.923184266168124,1.34151520096051,-0.973239741997607,0.807791760706273,-0.414035891460317,-0.695293699748922,3.96758002729571,2.46497406342439,"2020-10-16","2021-03-03","1",128331,51.3282059673812
"342",342,"Georgia","Clay",13061,31.6263,-84.9801,58,1.9261354370586,1.35964667795112,3.7775186558474,1.08301176182475,3.78786104561771,1.36028200337265,0.208973368534098,0.995752906454375,0.815003094124971,"2020-10-16","2021-03-03","1",2834,20.4657727593507
"343",343,"Georgia","Clayton",13063,33.5419,-84.3576,13500,0.817158256594051,3.04576655246924,0.762784961515702,1.21462494087959,1.91269023403091,1.09450046024766,0.920989922548188,3.02293552383353,2.05558589602472,"2020-10-16","2021-03-03","1",292256,46.1923792839155
"344",344,"Georgia","Clinch",13065,30.915,-82.7063,286,0.599899108520918,0.471640560342251,4.67981640469422,2.15411502415925,3.6016779324259,1.52705973217827,2.08745155153662,1.50287172280966,0.957980965753695,"2020-10-16","2021-03-03","1",6618,43.2154729525536
"345",345,"Georgia","Cobb",13067,33.9415,-84.5767,34660,0.191642859702247,1.08526925730046,-1.20667593659282,-1.12122626793,-1.13192920790628,-0.91656863806015,-0.692344249873912,0.429604260374366,1.56649236891699,"2020-10-16","2021-03-03","1",760141,45.5968037508831
"346",346,"Georgia","Coffee",13069,31.5493,-82.8492,1977,-1.06758226312665,0.989033513274964,1.94671683110845,2.36668571454058,1.96751172398931,0.290793907240776,1.58024169943432,0.649410031735328,0.80854299399322,"2020-10-16","2021-03-03","1",43273,45.6866868486123
"347",347,"Georgia","Colquitt",13071,31.1884,-83.7688,1269,-0.112990458929686,1.23110497380663,1.67804542391229,2.80538036173724,2.11907806484804,0.657668743977416,1.61326337351346,1.06184103812183,1.18461713039217,"2020-10-16","2021-03-03","1",45600,27.8289473684211
"348",348,"Georgia","Columbia",13073,33.5441,-82.264,6441,0.078835480412768,0.378524332418177,-1.9710653473493,-1.00755993672986,-1.16813893425846,-1.26144617625202,0.382092473735963,-1.41990481635968,1.9137213454627,"2020-10-16","2021-03-03","1",156714,41.1003484053754
"349",349,"Georgia","Cook",13075,31.154,-83.4305,570,0.632818520472159,0.578579335092268,2.02168359699394,0.99230396552322,1.85556680089689,0.15140144180635,1.30109673299912,2.25176181959317,2.39888165845303,"2020-10-16","2021-03-03","1",17270,33.0052113491604
"350",350,"Georgia","Coweta",13077,33.3535,-84.7634,5261,0.322352516391047,0.288965479938396,-1.16729904833899,-0.477384927571913,-0.353673339304321,0.377786677157371,0.292141979381112,-0.202213401594331,1.46518591275934,"2020-10-16","2021-03-03","1",148509,35.4254624298864
"351",351,"Georgia","Crisp",13081,31.9229,-83.7681,689,1.20044121149124,1.20635989437401,3.93803961189235,1.5202289569253,2.75012928371733,-0.59605406014497,1.02885624360859,1.94264740163008,1.83025675294238,"2020-10-16","2021-03-03","1",22372,30.79742535312
"352",352,"Georgia","Dade",13083,34.8546,-85.5045,792,0.488731824501027,-0.77114945366897,-1.27415745380319,1.07488511466662,-0.503766895480961,0.724736408739748,0.891714317146318,-0.157489660425784,0.966954975120937,"2020-10-16","2021-03-03","1",16116,49.1437081161579
"353",353,"Georgia","Dawson",13085,34.4443,-84.1706,1676,0.21570544444182,-0.57037500113772,-1.5008100796324,-0.47536329479604,-1.49076908635336,-0.40747583905514,0.441583673252556,-0.488404100278505,0.658084102371907,"2020-10-16","2021-03-03","1",26108,64.1948827945457
"354",354,"Georgia","Decatur",13087,30.8783,-84.579,804,0.371523590257973,1.11242398987652,1.77849190218594,0.86940360207909,2.54502435514731,0.541103758459816,1.05014559906061,1.89362334131421,2.33937624101796,"2020-10-16","2021-03-03","1",26404,30.4499318285108
"355",355,"Georgia","DeKalb",13089,33.7715,-84.2264,31992,0.796997442505211,2.01123370937502,0.339772425366804,-0.663186682596907,-0.914715472889684,-1.53361827863587,-0.458009611847819,1.92732466097302,1.99359864843342,"2020-10-16","2021-03-03","1",759297,42.1337105243403
"356",356,"Georgia","Dodge",13091,32.1722,-83.1684,559,-1.0285865936104,0.610515048442773,1.56759713095328,0.956998072578397,1.37370505512103,0.392866769297177,1.81850469521547,0.93500359851552,1.19158539931853,"2020-10-16","2021-03-03","1",20605,27.1293375394322
"357",357,"Georgia","Dooly",13093,32.1572,-83.7988,389,-1.9558522314173,1.61129289136444,2.94910752672034,2.44224024278544,2.02203643730669,1.28806537650099,1.49736369187163,2.34505770137671,1.8133516097598,"2020-10-16","2021-03-03","1",13390,29.0515309932786
"358",358,"Georgia","Dougherty",13095,31.5335,-84.2164,2038,1.57909609580978,2.12653045640125,2.58225195826205,0.555554118465251,3.23352930086304,-0.927926767829943,0.706374150161299,3.29999110660818,2.87907628751112,"2020-10-16","2021-03-03","1",87956,23.1706762472145
"359",359,"Georgia","Douglas",13097,33.7018,-84.768,6994,0.595608213144856,1.9291018763216,-0.389843524057866,0.33204657400479,0.397486030583275,0.49707695670746,0.670581823320364,0.468962583913768,2.11931560353048,"2020-10-16","2021-03-03","1",146343,47.7918315191024
"360",360,"Georgia","Early",13099,31.3228,-84.9037,452,1.62698816218003,1.12396349209719,2.15056662908749,1.38078497687306,2.77387003603796,-0.108794437936419,1.109311173206,3.06331284514616,0.910575114628921,"2020-10-16","2021-03-03","1",10190,44.3572129538763
"361",361,"Georgia","Effingham",13103,32.3673,-81.3413,1956,-0.438435825034502,0.078043236915269,-1.51330671816384,-0.055786828474873,-0.222993359296919,1.28955543419798,1.19701277269486,-0.740779421265674,2.58337672543141,"2020-10-16","2021-03-03","1",64296,30.4217991787981
"362",362,"Georgia","Elbert",13105,34.1168,-82.8401,753,1.1250949916584,0.787549007020844,1.3856790980903,1.90828802331074,1.47743981856792,0.593727385831977,1.01682019652833,1.42395515020266,0.947029897074309,"2020-10-16","2021-03-03","1",19194,39.2310096905283
"363",363,"Georgia","Emanuel",13107,32.5897,-82.3017,547,-0.002976347717188,0.952858102684696,1.73336809433963,2.2310305395357,2.2463344269406,0.909090839945788,1.72358181633788,0.544283313337632,1.37125637167719,"2020-10-16","2021-03-03","1",22646,24.1543760487503
"364",364,"Georgia","Evans",13109,32.1568,-81.8869,279,0.151000835721757,1.14301859399339,1.8242691566289,2.37901001973839,2.14239240363319,0.558013071735626,0.593425604363465,2.26384585426473,1.4513090278279,"2020-10-16","2021-03-03","1",10654,26.1873474751267
"365",365,"Georgia","Fannin",13111,34.8641,-84.3198,1210,1.3099382682716,-0.777323959488735,-0.303681665151524,0.0242367011181992,-1.02208528678375,0.674099312661555,0.131857530512169,-0.325233814616844,0.581791397304905,"2020-10-16","2021-03-03","1",26188,46.2043684130136
"366",366,"Georgia","Fayette",13113,33.414,-84.4942,4169,0.726501365168145,0.650840118664029,-1.85494019871414,-1.9467608034368,-1.78228909323741,-2.28993383493745,-1.03057084976556,-0.129293766448365,1.81365574077767,"2020-10-16","2021-03-03","1",114421,36.4356193356115
